,FINN-kode,Title,Address,Prisantydning,lat,lng,url,Omkostninger,Totalpris,Felleskost/mnd.,Boligtype,Eieform,Soverom,Primærrom,Bruksareal,Etasje,Byggeår,Rom,Tomteareal,Bruttoareal,Fellesformue,Formuesverdi,Fellesgjeld,Energimerking,Pris med fellesgjeld,Renovert år,Mobil,Eierskifte-forsikring,Kommunale avg.,Tomt,Festeavgift,Fax,Felleskost/mnd. etter avdragsfri periode,Sikringsordning,Grunnflate,Utleiedel,Verditakst,Låneverdi,Lånetakst,Telefon,price,area,price_per_m2,predicted_price,priceyness
0,159288469,"Attraktiv, lys og klassisk 4/5-roms selveiet hjørneleilighet med solrik balkong og peis. Perfekt for utleie!","Middelthuns gate 13, 0368 Oslo",6490000.0,59.9269,10.7127,https://www.finn.no/realestate/homes/ad.html?finnkode=159288469,177522.0,6667522.0,4439.0,Leilighet,Eier (Selveier),3,89.0,89.0,4,1909,4,307.0,100.0,22076.0,1810886.0,,,,,,,,,,,,,,,,,,,6667522.0,89.0,74915.97752808989,5994775.202959132,0.10635998630103849
1,166286918,Nyoppusset og lekker 5-roms med heisadkomst - 2 solrike terrasser - flott utsikt - peis - garasje - T-bane like ved,"Ullern Allé 75, 0381 Oslo",13500000.0,59.92847,10.650056,https://www.finn.no/realestate/homes/ad.html?finnkode=166286918,350042.0,13902741.0,5115.0,Leilighet,Eier (Selveier),3,149.0,149.0,4,1982,,43595.0,158.0,69318.0,2209419.0,52699.0,E - rød,,,,,,,,,,,,,,,,,13902741.0,149.0,93306.9865771812,9146345.167976363,0.41873165064291484
2,165884370,GRÜNERLØKKA/RODELØKKA: Attraktiv 4-r leilighet. Garasjeplass (plass til 2 biler). Elbil-lader. Felles takterrasse. Heis.,"Malmøgata 11, 0566 Oslo",6500000.0,59.926716,10.767245,https://www.finn.no/realestate/homes/ad.html?finnkode=165884370,163722.0,6663722.0,3785.0,Leilighet,Eier (Selveier),3,92.0,92.0,3,2014,4,1548.0,101.0,7724.0,1657495.0,,,,,,,,,,,,,,,,,,,6663722.0,92.0,72431.76086956522,6152353.701209994,0.07984346306232482
3,166044427,Holmenkollen/Voksenkollen: Familievennlig enebolig fra 2007. Attraktiv beliggenhet. Flotte uteplasser. Gode solforhold.,"Veslekleiva 1 C, 0788 Oslo",8550000.0,59.97035,10.651749,https://www.finn.no/realestate/homes/ad.html?finnkode=166044427,214972.0,8764972.0,,Enebolig,Eier (Selveier),3,106.0,112.0,,2007,4,510.0,128.0,,,,D - rød,,,,,,,,,,,,,,,,,8764972.0,112.0,78258.67857142857,7202877.022882404,0.19628279112439628
4,165992065,"BIRKELUNDEN: Nydelig, klassisk 3-roms med særegen atmosfære. Stukkatur og rosett. Peisovn. Attraktiv beliggenhet!","Schleppegrells gate 17 A, 0556 Oslo",5200000.0,59.927086,10.762541,https://www.finn.no/realestate/homes/ad.html?finnkode=165992065,131222.0,5331222.0,3659.0,Leilighet,Eier (Selveier),2,68.0,68.0,2,1896,3,364.0,77.0,6015.0,,,F - oransje,,,,,,,,,,,,,,,,,5331222.0,68.0,78400.32352941176,4891725.715203101,0.08603533196822255
5,165823979,"Kjedet enebolig på enden med solrike uteplasser, skjermet hage og garasje. Fantastisk beliggenhet ved marka. IN-ordning.","Thorn Dønhaugs vei 26, 1271 Oslo",3400000.0,59.8269,10.8313,https://www.finn.no/realestate/homes/ad.html?finnkode=165823979,8048.0,4403256.0,12656.0,Enebolig,Andel,6,137.0,140.0,,2004,4,25387.0,154.0,,1413364.0,995208.0,G - gul,,,,,,,,,,,,,,,,,4403256.0,140.0,31451.82857142857,8673609.673223779,-0.6779407775131059
6,165889834,Arealeffektiv og gjennomgående 5-roms leilighet over to plan med hele 3 balkonger. Flott utsikt over Oslo By og helt til,"Valhallveien 9, 0196 Oslo",6300000.0,59.9008,10.7866,https://www.finn.no/realestate/homes/ad.html?finnkode=165889834,8520.0,7153332.0,7336.0,Leilighet,Andel,4,117.0,123.0,2,1977,5,15185.0,136.0,118920.0,1651667.0,844812.0,F - rød,,,,,,,,,,,,,,,,,7153332.0,123.0,58157.170731707316,7780664.84980223,-0.0840635286707645
7,166269144,Sjelden mulighet i Petersborgkvartalet - Lekker 4-R i topp/ende m. sydvestvendt balkong - Garasje med EL - Barnevennlig!,"Sigurd Hoels vei 59, 0655 Oslo",6400000.0,59.9176,10.7872,https://www.finn.no/realestate/homes/ad.html?finnkode=166269144,166972.0,6566972.0,3296.0,Leilighet,Eier (Selveier),3,79.0,79.0,5,2017,4,9779.0,88.0,6434.0,1339581.0,,D - mørkegrønn,,,,,,,,,,,,,,,,,6566972.0,79.0,83126.22784810126,5469513.542122927,0.18286316294779503
8,165891547,Meget sjarmerende og koselig 3-roms med solrik vestvendt balkong | Peis | God takhøyde | Varmtvann inkl i f.kost,"Maridalsveien 162D, 0461 Oslo",4800000.0,59.9386,10.7571,https://www.finn.no/realestate/homes/ad.html?finnkode=165891547,,,5879.0,Leilighet,Andel,2,68.0,68.0,3,1900,3,551.0,,,1195366.0,175341.0,,4975341.0,2019,934 65 319,,,,,,,,,,,,,,4800000.0,68.0,70588.23529411765,4891725.715203101,-0.01892923031040894
9,166160771,Lekker og gjennomgående 3-roms med sydvendt balkong og peis. Populær beliggenhet med utsikt ut mot Torshovdalen!,"Edvard Griegs allé 7A, 0479 Oslo",4650000.0,59.938,10.7785,https://www.finn.no/realestate/homes/ad.html?finnkode=166160771,8219.0,4961219.0,3323.0,Leilighet,Andel,2,69.0,69.0,1,1952,3,21295.0,76.0,9194.0,1208589.0,303000.0,G - rød,,,418 55 666,,,,,,,,,,,,,,4961219.0,69.0,71901.72463768115,4944251.881286722,0.0034258109504783363
10,165412849,Flott 2-roms rekkehusleilighet fra 2015|Idyllisk beliggenhet ved marka|2 uteplasser|Gode solforhold|Peis|Hems|Parkering,"Rødkleivfaret 1G, 0788 Oslo",3490000.0,59.9823,10.6542,https://www.finn.no/realestate/homes/ad.html?finnkode=165412849,86222.0,3576222.0,1755.0,Leilighet,Eier (Selveier),1,40.0,40.0,1,2015,2,9501.0,46.0,2753.0,1409029.0,,C - oransje,,,476 22 523,,,,,,,,,,,,,,3576222.0,40.0,89405.55,3420993.064861727,0.044376057153302284
11,165913868,Lys 1(2)-roms med stor sydvestvendt markterrasse - adskilt soverom med vindu - kort vei til offentlig kommunikasjon,"Vestre Haugen 70, 1054 Oslo",2300000.0,59.9477,10.8995,https://www.finn.no/realestate/homes/ad.html?finnkode=165913868,8219.0,2496219.0,2432.0,Leilighet,Andel,1,43.0,43.0,1,1975,2,11952.0,48.0,28793.0,561813.0,188000.0,E - rød,,,454 70 505,,,,,,,,,,,,,,2496219.0,43.0,58051.604651162794,3578571.5631125886,-0.36018652902905757
12,166245572,Tøff og arealeffektiv 2-roms | Terrasse | Lave fk inkl. fyring/vv. | Standard fra 2015 | Felles takterrasse,"Stavangergata 46A, 0467 Oslo",2600000.0,59.9444,10.7588,https://www.finn.no/realestate/homes/ad.html?finnkode=166245572,8357.0,2871357.0,3504.0,Leilighet,Andel,1,25.0,25.0,1,1955,2,2234.0,29.0,14377.0,666032.0,263000.0,D - mørkegrønn,,,418 55 666,,,,,,,,,,,,,,2871357.0,25.0,114854.28,2633100.573607419,0.08662266319701395
13,166284486,"Lys og fin 4-roms leilighet med vestvendt balkong - garasjeplass - nær marka, butikker og kollektivtransport","Aslakveien 23, 0753 Oslo",5700000.0,59.940586,10.649363,https://www.finn.no/realestate/homes/ad.html?finnkode=166284486,161110.0,6053329.0,4092.0,Leilighet,Eier (Selveier),3,90.0,90.0,2,1965,,8567.0,98.0,21568.0,1455915.0,192219.0,E - oransje,,,,Ja,,,,,,,,,,,,,6053329.0,90.0,67259.21111111112,6047301.369042752,0.0009962508186696084
14,166281082,"Ny, vertikaldelt tomannsbolig. 3 plan. Takterrasse med 360 graders utsikt. 3 bad. 3 soverom. Kastellet skolekrets.","Oberst Rodes vei 7B, 1176 Oslo",11200000.0,59.877914,10.803279,https://www.finn.no/realestate/homes/ad.html?finnkode=166281082,,,,Tomannsbolig,Eier (Selveier),3,160.0,191.0,,2019,,1708.0,,,,,B - oransje,,,,,,,,,,,,,,,,,11200000.0,191.0,58638.74345549738,11352444.143488424,-0.013519285482004761
15,166256780,"Innbydende og moderne 2-roms med sentral beliggenhet | Kort vei til off.komm | Solrik, innglasset balkong | Fyring inkl.","Bergensveien 20, 0963 Oslo",2600000.0,59.9631,10.8827,https://www.finn.no/realestate/homes/ad.html?finnkode=166256780,12075.0,2840075.0,3032.0,Leilighet,Aksje,1,42.0,50.0,1,1951,2,7639.0,55.0,,582541.0,228000.0,G - mørkegrønn,,,450 63 919,,,,,,,,,,,,,,2840075.0,50.0,56801.5,3946254.725697932,-0.32893649813033043
16,166278118,"Sjarmerende 2-roms selveierleilighet med fyring, VV inkludert. El anlegg 18. Glimrende førstegangskjøp / utleieobjekt.","Rødstuveien 6, 0572 Oslo",3050000.0,59.92969,10.783706,https://www.finn.no/realestate/homes/ad.html?finnkode=166278118,94642.0,3205642.0,2967.0,Leilighet,Eier (Selveier),1,36.0,36.0,2,1939,2,3021.0,,13746.0,754169.0,61000.0,F - mørkegrønn,,,,Ja,,,,,,,,,,,,,3205642.0,36.0,89045.61111111111,3210888.400527245,-0.0016352768143796936
17,165950545,Bjerke/Linderud - Spennende 2-roms oppussingsobjekt - Effektiv planløsning - Balkong - P.plass - Kort vei til tbane,"Sletteløkka 22A, 0597 Oslo",2350000.0,59.9468,10.8471,https://www.finn.no/realestate/homes/ad.html?finnkode=165950545,70792.0,2471792.0,2457.0,Leilighet,Eier (Selveier),1,37.0,37.0,1,1962,2,56783.0,40.0,16249.0,669403.0,51000.0,F - mørkegrønn,,,,,,,,,,,,,,,,,2471792.0,37.0,66805.18918918919,3263414.5666108653,-0.2778306666346406
18,159094823,Rålekker og stilren 3-roms med supersentral beliggenhet - Oppusset i 2019 - Solrik vestvendt balkong - Flytt rett inn!,"HELGESENS GATE 79 A, 0563 Oslo",4450000.0,59.921474,10.775634,https://www.finn.no/realestate/homes/ad.html?finnkode=159094823,18975.0,4724975.0,3204.0,Leilighet,Aksje,2,57.0,57.0,,1952,3,4461.0,64.0,10882.0,,256000.0,G - rød,,,,Ja,,,,,,,,,,,,,4724975.0,57.0,82894.29824561403,4313937.888283275,0.09101111977212462
19,146088116,"Attraktiv frittliggende enebolig over 3 plan med flott, skjermet hage, garasje og biloppstillingsplasser. Barnevennlig","BEKKEVEIEN 16 A + B, 0678 Oslo",8990000.0,59.90529,10.819027,https://www.finn.no/realestate/homes/ad.html?finnkode=146088116,239900.0,9229900.0,,Enebolig,Eier (Selveier),3,140.0,155.0,,1987,5,629.0,170.0,,1900860.0,,F - oransje,,,,Ja,14729.0,,,,,,,,,,,,9229900.0,155.0,59547.74193548387,9461502.164478086,-0.024782947408965583
20,166273793,"Tiltalende, moderne 2-roms andelsleilighet med peis og balkong - Mulighet for leie av p-plass med el-lader!","Kvartsveien 9, 1158 Oslo",3250000.0,59.86499,10.825506,https://www.finn.no/realestate/homes/ad.html?finnkode=166273793,15119.0,3438545.0,2546.0,Leilighet,Andel,1,52.0,52.0,2,1956,2,70721.0,57.0,14160.0,840768.0,173426.0,E - rød,,,,,,,,,,,,,,,,,3438545.0,52.0,66125.86538461539,4051307.057865173,-0.1639911425952416
21,166273067,Pen og klassisk 2-roms m/superattraktiv beliggenh. rett ved trikk/buss og idylliske Stensparken - Nytt bad i 2019 - Heis,"Thereses gate 35B, 0354 Oslo",3790000.0,59.927437,10.731147,https://www.finn.no/realestate/homes/ad.html?finnkode=166273067,,,2682.0,Leilighet,Aksje,1,44.0,44.0,4,1923,2,1480.0,48.0,138385.0,,10622.0,G - mørkegrønn,3800622.0,,,,,,,,,,,,,,,,3790000.0,44.0,86136.36363636363,3631097.729196209,0.0428310117954247
22,166272342,"Smart og moderne 2-roms med balkong, heis og egen garasjeplass. Kort vei til butikker, t-bane og marka!","Spireaveien 10B, 0580 Oslo",3300000.0,59.933716,10.801917,https://www.finn.no/realestate/homes/ad.html?finnkode=166272342,8874.0,3542874.0,4301.0,Leilighet,Andel,1,48.0,48.0,3,2007,2,2687.0,53.0,,,234000.0,,,,,Ja,,,,,,,,,,,,,3542874.0,48.0,73809.875,3841202.393530691,-0.08084717873322589
23,154449666,"Studioleilighet med god planløsning, balkong, heis og moderne standard - Lave felleskost. - Supersentral beliggenhet!","Industrigata 40, 0357 Oslo",3490000.0,59.926376,10.720589,https://www.finn.no/realestate/homes/ad.html?finnkode=154449666,103400.0,3593400.0,1663.0,Leilighet,Eier (Selveier),,34.0,34.0,2,1933,1,,39.0,8965.0,874457.0,,F - mørkegrønn,,,,,,Eiet,,,,,,,,,,,3593400.0,34.0,105688.23529411765,3105836.0683600036,0.14581588520394995
24,161809276,Lekker 2-roms i attraktivt boområde på Holmenkollens solrike vestside | Garasjeplass | Stor og solrik terrasse,"Olaf Bulls vei 28, 0765 Oslo",3850000.0,59.967,10.6431,https://www.finn.no/realestate/homes/ad.html?finnkode=161809276,8251.0,4183735.0,4416.0,Leilighet,Andel,1,60.0,62.0,,1981,2,17184.0,66.0,14884.0,1128762.0,325484.0,E - rød,,,,,,,,,,,,,,,,,4183735.0,62.0,67479.59677419355,4576568.718701378,-0.08974514105130282
25,145924267,Lys og lekker 3-roms hjørne/loftsleilighet med stor solrik takterrasse | 89 m² gulvareal | Ingen innsyn,"Waldemar Thranes gate 17, 0171 Oslo",5990000.0,59.924812,10.74302,https://www.finn.no/realestate/homes/ad.html?finnkode=145924267,164872.0,6154872.0,3460.0,Leilighet,Eier (Selveier),2,70.0,70.0,5,1895,3,523.0,77.0,9060.0,1358617.0,,G - oransje,,,,Ja,,,,,,,,,,,,,6154872.0,70.0,87926.74285714286,4996778.047370343,0.2084506491200866
26,165956297,Torshov - Hyggelig 2-r selveier m enkle oppussingsbehov - Pent bad fra 2009 - Fint kjøkken fra 2015 - Balk. m/kveldssol,"Edvard Griegs allé 23, 0479 Oslo",3000000.0,59.9361,10.7759,https://www.finn.no/realestate/homes/ad.html?finnkode=165956297,89992.0,3309698.0,2984.0,Leilighet,Eier (Selveier),1,43.0,43.0,2,1935,2,6992.0,48.0,20180.0,859954.0,219706.0,E - rød,,,,,,,,,,,,,,,,,3309698.0,43.0,76969.72093023256,3578571.5631125886,-0.07810676951611661
27,166268747,Lys og luftig 2-roms i klassisk bygård med sentral beliggenhet - God takhøyde og praktisk planløsning - Strøm inkl. i FK,"Arups gate 22A, 0192 Oslo",2800000.0,59.906948,10.771861,https://www.finn.no/realestate/homes/ad.html?finnkode=166268747,,,3012.0,Leilighet,Andel,1,27.0,27.0,2,1894,2,767.0,31.0,28043.0,567565.0,,F - rød,,,,Ja,,,,,,,,,,,,,2800000.0,27.0,103703.70370370371,2738152.9057746604,0.022335846083620936
28,166268719,"Lekker og moderne 3-roms toppleilighet med fantastisk utsikt, Balkong, Heis, Innsynsfri og privat atmosfære ved marka","Pilotveien 8, 0770 Oslo",3780000.0,59.94997,10.659227,https://www.finn.no/realestate/homes/ad.html?finnkode=166268719,15147.0,4062767.0,3911.0,Leilighet,Andel,2,61.0,61.0,9,1963,3,11572.0,68.0,9426.0,1162613.0,267620.0,F - rød,,,,,,,,,,,,,,,,,4062767.0,61.0,66602.73770491804,4524042.552617758,-0.10754169560862081
29,166268546,Gjennomgående og romslig 4-roms med innglasset balkong på 12m2 - Utsikt - Garasjeplass - Barnevennlig!,"Ravnkollbakken 68, 0971 Oslo",2350000.0,59.968758,10.891562,https://www.finn.no/realestate/homes/ad.html?finnkode=166268546,12447.0,2854447.0,6685.0,Leilighet,Andel,3,84.0,102.0,4,1972,4,19918.0,105.0,11858.0,948716.0,492000.0,G - rød,,,,Ja,,,,,,,,,,,,,2854447.0,102.0,27984.774509803923,6677615.362046199,-0.8498828130106304
30,166268056,Lekker og nyoppusset 3-roms loftsleilighet med loftstue/messanin. Høy standard. 4 meter takhøyde. Sentral beliggenhet,"Hauchs gate 2B, 0174 Oslo",4250000.0,59.926826,10.75145,https://www.finn.no/realestate/homes/ad.html?finnkode=166268056,7960.0,4502960.0,4896.0,Leilighet,Andel,2,52.0,52.0,5,1897,3,348.0,57.0,28084.0,,245000.0,G - rød,,,,Ja,,,,,,,,,,,,,4502960.0,52.0,86595.38461538461,4051307.057865173,0.10569539892377655
31,166267633,Halv tomannsbolig. 107 m² BRA. 3 soverom. Solrikt. Hage. 3 uteplasser. Garasjeplass. Barnevennlig. Moderniseringsbehov.,"Lerdalstoppen 2, 1258 Oslo",3650000.0,59.83649,10.801302,https://www.finn.no/realestate/homes/ad.html?finnkode=166267633,15147.0,3720147.0,3855.0,Rekkehus,Andel,3,98.0,107.0,1,1982,,22800.0,120.0,32890.0,1108067.0,55000.0,E - lysegrønn,,,,Ja,,,,,,,,,,,,,3720147.0,107.0,34767.72897196261,6940246.192464301,-0.6235740646746528
32,166267564,Klassisk 4- roms hjørneleilighet I 3 soverom I Garasjeplass I Balkong I Rosett & stukkatur I Populær beliggenhet,"Henrik Klausens gate 4, 0452 Oslo",8300000.0,59.930187,10.734125,https://www.finn.no/realestate/homes/ad.html?finnkode=166267564,218700.0,8521571.0,4634.0,Leilighet,Eier (Selveier),3,105.0,105.0,3,1903,4,1378.0,116.0,26716.0,1879020.0,2871.0,G - rød,,,,,,,,,,,,,,,,,8521571.0,105.0,81157.81904761905,6835193.860297061,0.22051588085941276
33,166267511,"TØYEN: Arkitekttegnet, særegen 2-r loftsleil. i 6. etg - Heis - Varmtvann, TV&nett ink. Topp beliggenhet, like v. T-bane","Hagegata 39 B, 0653 Oslo",3200000.0,59.913128,10.776392,https://www.finn.no/realestate/homes/ad.html?finnkode=166267511,7932.0,3425932.0,5040.0,Leilighet,Andel,1,43.0,43.0,6,1899,2,494.0,,10794.0,780487.0,218000.0,G - rød,,,,Ja,,,,,,,,,,,,,3425932.0,43.0,79672.83720930232,3578571.5631125886,-0.043590164586440494
34,160487117,Nyoppusset (2019) og lekker 3-roms selveier beliggende i indre gårdsrom I Vestvendt balkong I 2 bad I Peis,"Erling Skjalgssons gate 20 B (indre gård), 0267 Oslo",9150000.0,59.919346,10.701527,https://www.finn.no/realestate/homes/ad.html?finnkode=160487117,240950.0,9531046.0,4365.0,Leilighet,Eier (Selveier),2,103.0,103.0,4,1900,3,1032.0,120.0,17982.0,2003132.0,140096.0,F - oransje,,,,,,,,,,,,,,,,,9531046.0,103.0,92534.42718446603,6730141.528129819,0.34795829742462736
35,163572101,Fabrikkleilighet fra 2019 med skikkelig New York følelse | Høy Standard | Vannbåren gulvvarme | Heis | Utbyggergaranti,"Bøkkerveien 10 C, 0579 Oslo",3190000.0,59.927887,10.795346,https://www.finn.no/realestate/homes/ad.html?finnkode=163572101,88450.0,3278450.0,1465.0,Leilighet,Eier (Selveier),,33.0,33.0,3,2019,1,12371.0,37.0,,786845.0,,B - mørkegrønn,,,,,,,,,,,,,,,,,3278450.0,33.0,99346.9696969697,3053309.9022763832,0.07114453366678042
36,166104208,Hel tomannbolig o/2 plan | Meget barnevennlig | Nær marka | Stort potensial | Utleiemulighet | Oppussingsbehov |,"Rødtvetkroken 4A, 0956 Oslo",8000000.0,59.9545,10.8616,https://www.finn.no/realestate/homes/ad.html?finnkode=166104208,201252.0,8201252.0,,Tomannsbolig,Eier (Selveier),4,161.0,190.0,,1982,6,589.0,211.0,,1633490.0,,F - rød,,,,,9392.0,,,,,,,,,,,,8201252.0,190.0,43164.484210526316,11299917.977404803,-0.3205086415130225
37,165894270,Klassisk og gjennomgående 3(4)-roms - To solrike balkonger - Peis - Separat kjøkken - IN-ordning - Sentralt og rolig!,"Markveien 56E, 0550 Oslo",3850000.0,59.9197,10.7582,https://www.finn.no/realestate/homes/ad.html?finnkode=165894270,8220.0,5303209.0,9086.0,Leilighet,Andel,2,69.0,72.0,2,1889,3,1195.0,80.0,,,1444989.0,F - oransje,,2019,971 99 566,,,,,,,,,,,,,,5303209.0,72.0,73655.68055555556,5101830.379537583,0.038712735741793125
38,166266339,Meget velholdt 3 opprinnelig 4-roms selveierleilighet med moderniseringsbehov - 3 etg - Flott innglasset balkong!,"Sletteløkka 42 F, 0597 Oslo",2980000.0,59.94978,10.850072,https://www.finn.no/realestate/homes/ad.html?finnkode=166266339,91920.0,3322920.0,5206.0,Leilighet,Eier (Selveier),2,74.0,89.0,3,1959,3,35787.0,98.0,7582.0,,251000.0,E - rød,,,,Ja,,,,,,,,,,,,,3322920.0,89.0,37336.1797752809,5994775.202959132,-0.5900443759038012
39,165940029,"Innbydende 3-roms leilighet med flotte oppgraderinger, balkong og attraktiv beliggenhet med umiddelbar nærhet til marka.","Folke Bernadottes vei 6, 0862 Oslo",3750000.0,59.9648,10.7378,https://www.finn.no/realestate/homes/ad.html?finnkode=165940029,,,2796.0,Leilighet,Andel,2,45.0,45.0,2,1960,,4194.0,50.0,,1341019.0,22000.0,F - rød,3772000.0,,994 24 971,,,,13449.0,,,,,,,,,,3750000.0,45.0,83333.33333333333,3683623.8952798294,0.01785881820163837
40,160158008,Bjørvika/Eufemias plass - Ny & lekker 3-roms selveier kun få meter fra sjøen! Stor solrik balkong på 16 kvm - Utsikt,"Rostockgata 60, 0194 Oslo",6200000.0,59.9066,10.7605,https://www.finn.no/realestate/homes/ad.html?finnkode=160158008,172022.0,6372022.0,2608.0,Leilighet,Eier (Selveier),2,54.0,54.0,3,2019,3,1248.0,60.0,,,,C - rød,,,,,,,,,,,,,,,,,6372022.0,54.0,118000.4074074074,4156359.3900324143,0.4272773001650165
41,155687093,Moderne og stilren 4-roms leilighet fra 2014 med 86 m² gulvareal - Peis - Høy standard,"Rosenhoffgata 7A, 0569 Oslo",5490000.0,59.9295,10.7755,https://www.finn.no/realestate/homes/ad.html?finnkode=155687093,1532.0,5563073.0,3904.0,Leilighet,Andel,3,70.0,70.0,4,1913,4,2882.0,77.0,65885.0,1451181.0,71541.0,G - oransje,,,901 26 841,,,,5196.0,,,,,,,,,,5563073.0,70.0,79472.47142857143,4996778.047370343,0.10735733922366286
42,163556615,Lambertseter: Pen og gjennomgående 2-roms i 3. etg. | Vestvendt balkong | Varmtvann & fyring inkl. | Downlights,"Radarveien 64, 1152 Oslo",2990000.0,59.87475,10.80865,https://www.finn.no/realestate/homes/ad.html?finnkode=163556615,15119.0,3099366.0,4105.0,Leilighet,Andel,1,54.0,54.0,3,1959,2,40999.0,59.0,15991.0,864664.0,94247.0,F - mørkegrønn,,,,Ja,,,,,,,,,,,,,3099366.0,54.0,57395.666666666664,4156359.3900324143,-0.293441970036179
43,165322444,Lys og pen 2-roms med god planløsning og hyggelig balkong - Flytt rett inn!,"Platous gate 33, 0190 Oslo",3200000.0,59.9103,10.7643,https://www.finn.no/realestate/homes/ad.html?finnkode=165322444,87442.0,3287442.0,2066.0,Leilighet,Eier (Selveier),1,33.0,33.0,4,2008,2,1714.0,37.0,8650.0,728336.0,,C - mørkegrønn,,,,,,,,,,,,,,,,,3287442.0,33.0,99619.45454545454,3053309.9022763832,0.07388353870116404
44,158791691,Tiltalende 4-roms leilighet i 3-mannsbolig med markterrasse | Meget barnevennlig | Sjelden mulighet | Oppusset i 2012 |,"Linjeveien 37A, 1087 Oslo",3200000.0,59.9476,10.9202,https://www.finn.no/realestate/homes/ad.html?finnkode=158791691,83752.0,3283752.0,1100.0,Leilighet,Eier (Selveier),3,62.0,65.0,1,1962,4,894.0,71.0,,699997.0,,,,,,,9364.0,,,,,,,,,,,,3283752.0,65.0,50519.26153846154,4734147.21695224,-0.36581493732411197
45,166264395,Fantastisk lekker 3 - roms leilighet i høy 1.etg. | Herlig solrik balkong | Fyring og v.vann inkl.,"Johan Hirschs vei 9, 0678 Oslo",3850000.0,59.899567,10.8078985,https://www.finn.no/realestate/homes/ad.html?finnkode=166264395,15147.0,3874147.0,3277.0,Leilighet,Andel,2,67.0,67.0,1,1958,3,6672.0,74.0,17396.0,914147.0,9000.0,G - rød,,,,Ja,,,,,,,,,,,,,3874147.0,67.0,57823.08955223881,4839199.549119481,-0.22242381509692954
46,166249619,"Nydelig, klassisk 2-roms leilighet med flott beliggenhet ved Sofienbergparken. Nytt bad fra 2012. Ingen dokumentavgift.","Teglverksgata 1, 0553 Oslo",2600000.0,59.9239,10.765,https://www.finn.no/realestate/homes/ad.html?finnkode=166249619,1032.0,2767648.0,2893.0,Leilighet,Andel,2,24.0,24.0,2,1887,2,285.0,26.0,5553.0,536130.0,166616.0,F - rød,,,,,,,,,,,,,,,,,2767648.0,24.0,115318.66666666667,2580574.4075237988,0.06998584931052498
47,166155813,Luftig og koselig 3-roms leilighet|Solrik terrasse på ca. 11 m² med flott utsikt|Garasjeplass|Rolige omgivelser|,"Grefsenkollveien 12E, 0490 Oslo",4950000.0,59.9559,10.7966,https://www.finn.no/realestate/homes/ad.html?finnkode=166155813,125342.0,5090908.0,3988.0,Leilighet,Eier (Selveier),2,76.0,77.0,3,1973,3,37086.0,86.0,20855.0,1395208.0,15566.0,E - rød,,,454 57 593,,,,,,,,,,,,,,5090908.0,77.0,66115.68831168831,5364461.209955686,-0.052339740539613544
48,166264184,PERFEKT 1.GANGSKJØP! Lekker 2-roms selveier m/ - Lave felleskostn. - V.v og fyring inkl. - Smart planløsning - Heis,"Uelands gate 8, 0174 Oslo",3190000.0,59.925625,10.749902,https://www.finn.no/realestate/homes/ad.html?finnkode=166264184,93622.0,3283622.0,1859.0,Leilighet,Eier (Selveier),1,36.0,37.0,2,1938,,835.0,42.0,347.0,824141.0,,F - mørkegrønn,,,,Ja,,,,,,,,,,,,,3283622.0,37.0,88746.54054054055,3263414.5666108653,0.006173021137891865
49,166263641,"Stor, 3-roms v/marka. Utsikt. Oppusset 2001/02/13. Vestvendt. Balkong. VV/fyring inkl. Sentralt. Ca 20 min. til Oslo S.","Rugdeberget 12, 1266 Oslo",2950000.0,59.841824,10.81294,https://www.finn.no/realestate/homes/ad.html?finnkode=166263641,15148.0,3045656.0,4663.0,Leilighet,Andel,2,79.0,79.0,4,1984,,38700.0,86.0,27523.0,845952.0,80508.0,G - mørkegrønn,,,,,,,,,,,,,,,,,3045656.0,79.0,38552.60759493671,5469513.542122927,-0.5854733674103763
50,166263636,Flott og lys 2(3)-roms leilighet - Balkong på ca. 6 m² med pen utsikt - Fyring og v.v inkl. i fellesutgifter,"Schouterrassen 13, 0573 Oslo",3650000.0,59.930832,10.781518,https://www.finn.no/realestate/homes/ad.html?finnkode=166263636,7932.0,3997919.0,4432.0,Leilighet,Andel,1,51.0,,3,1937,2,2941.0,56.0,57585.0,938341.0,339987.0,F - mørkegrønn,,,,Ja,,,,,,,,,,,,,3997919.0,51.0,78390.56862745098,3998780.8917815527,-0.00021556186841031888
51,160193043,"Jomfrubråten/Nordstrand | Lekkert rekkehus | 2 bad, 4 soverom, 2 stuer | Vestvendte uteplasser og hage | Garasjeplass","Jomfruhagen 24, 1179 Oslo",12500000.0,59.887802,10.773438,https://www.finn.no/realestate/homes/ad.html?finnkode=160193043,331235.0,12876235.0,4480.0,Rekkehus,Eier (Selveier),4,143.0,146.0,,2014,6,5351.0,164.0,5858.0,2323095.0,45000.0,B - mørkegrønn,,,,Ja,,,,,,,,,,,,,12876235.0,146.0,88193.3904109589,8988766.6697255,0.35940771433693897
52,166263605,Lys og innbydende 3-roms med vestvendt balkong og heis. Rolig beliggenhet i enveiskjørt gate. Mulighet for p-plass,"Ole Fladagers gate 1A, 0353 Oslo",7300000.0,59.9252,10.717069,https://www.finn.no/realestate/homes/ad.html?finnkode=166263605,200580.0,7543580.0,4045.0,Leilighet,Eier (Selveier),2,84.0,84.0,2,1958,3,1076.0,92.0,,1706453.0,43000.0,C - gul,,,,Ja,,,,,,,,,,,,,7543580.0,84.0,89804.52380952382,5732144.372541029,0.27460717363515386
53,166263544,"Delikat, lys og moderne 2-roms med solrik balkong, garasjeplass og heis -sentralt - varmtvann/fyring inkl.","Nedre Skøyen vei 20, 0276 Oslo",4290000.0,59.9241,10.6806,https://www.finn.no/realestate/homes/ad.html?finnkode=166263544,109542.0,4442344.0,2987.0,Leilighet,Eier (Selveier),1,53.0,53.0,3,2001,2,3281.0,58.0,3877.0,1174581.0,42802.0,D - mørkegrønn,,,,,,,,,,,,,,,,,4442344.0,53.0,83817.81132075471,4103833.2239487935,0.07926069546377157
54,166262720,"Pen og lys 3-roms andelsleilighet i 2. etg - Hyggelig vestvendt balkong på 7,5 kvm - Minutter til tog, buss og t-bane!","Martin Skatvedts Vei 24, 0950 Oslo",3100000.0,59.94997,10.8632765,https://www.finn.no/realestate/homes/ad.html?finnkode=166262720,15285.0,3429285.0,3695.0,Leilighet,Andel,2,63.0,63.0,2,1953,3,31369.0,70.0,48336.0,,314000.0,D - rød,,,,Ja,,,,,,,,,,,,,3429285.0,63.0,54433.09523809524,4629094.884784998,-0.30000957510270077
55,166262524,"Stilren og delikat 3-roms leilighet i 2.etg | Sydvendt balkong på 7,5 kvm med frodig utsyn | Varmtvann og fyring inkl.","Raukveien 8, 0680 Oslo",3790000.0,59.892624,10.808954,https://www.finn.no/realestate/homes/ad.html?finnkode=166262524,7960.0,3921960.0,3935.0,Leilighet,Andel,2,66.0,66.0,2,1958,3,77000.0,74.0,9236.0,924569.0,124000.0,C - gul,,,,Ja,,,,,,,,,,,,,3921960.0,66.0,59423.63636363636,4786673.38303586,-0.19924414924815892
56,166262285,"Lys og sentral leilighet med balkong - Varmtvann og fyring inkl. i fellesutgifter - Kort vei til ""alt""","Enerhauggata 1, 0651 Oslo",2950000.0,59.913334,10.768236,https://www.finn.no/realestate/homes/ad.html?finnkode=166262285,15257.0,2993650.0,2604.0,Leilighet,Andel,,34.0,,4,1964,1,27700.0,39.0,,655587.0,28393.0,G - mørkegrønn,,,,Ja,,,,,,,,,,,,,2993650.0,34.0,88048.5294117647,3105836.0683600036,-0.036789565615942266
57,165945514,Gjennomgående og lys 2-roms m/balkong | Sentralt | V.v. og fyring inkludert | Ingen dok. avgift,"Strømsveien 78A, 0661 Oslo",2550000.0,59.9114,10.7942,https://www.finn.no/realestate/homes/ad.html?finnkode=165945514,15557.0,3135166.0,7960.0,Leilighet,Andel,1,50.0,50.0,2,1937,2,1438.0,55.0,59150.0,846917.0,569609.0,F - mørkegrønn,,,,,,,,,,,,,,,,,3135166.0,50.0,62703.32,3946254.725697932,-0.23008483516418643
58,166262051,Attraktiv og romslig 1/2 av tomannsbolig over 2 plan med god standard og barnevennlig beliggenhet. Garasje. Solrik hage.,"Tyslevveien 59 F, 1163 Oslo",10600000.0,59.863434,10.802889,https://www.finn.no/realestate/homes/ad.html?finnkode=166262051,280150.0,10880150.0,1600.0,Tomannsbolig,Eier (Selveier),4,194.0,219.0,,1939,,2177.0,251.0,,2616968.0,,G - oransje,,,,Ja,17902.0,,,,,,,,,,,,10880150.0,219.0,49681.0502283105,12823176.793829799,-0.1643141925284688
59,166261545,Lekker 3-roms selveier - kjøkken og bad fra 2014 - Egen garasje og biloppstillingsplass - Sydvestvendt balkong -,"Østerliveien 37 B, 1153 Oslo",4100000.0,59.877922,10.811791,https://www.finn.no/realestate/homes/ad.html?finnkode=166261545,119600.0,4308144.0,4500.0,Leilighet,Eier (Selveier),2,64.0,64.0,2,1956,,2816.0,70.0,24250.0,992292.0,88544.0,F - oransje,,,,Ja,,,,,,,,,,,,,4308144.0,64.0,67314.75,4681621.050868619,-0.08313724342579754
60,166261560,"Lekker og arealeffektiv 2-roms med nyere kjøkken og bad (2012), vestvendt balkong, utsikt, og gode solforhold!","Bølerlia 8, 0691 Oslo",2850000.0,59.88102,10.846157,https://www.finn.no/realestate/homes/ad.html?finnkode=166261560,7960.0,2974823.0,3602.0,Leilighet,Andel,1,49.0,49.0,2,1957,2,37794.0,56.0,19468.0,752322.0,116863.0,,,,,Ja,,,,,,,,,,,,,2974823.0,49.0,60710.67346938775,3893728.5596143114,-0.2691826557500523
61,166261557,Villa Nysæter er en klassisk og sjarmerende villa fra 1925 | Garasje | Stor hage | Idyllisk og sentralt | Bra 267 kvm,"Tyslevveien 51A, 1163 Oslo",14300000.0,59.864532,10.80216,https://www.finn.no/realestate/homes/ad.html?finnkode=166261557,372650.0,14672650.0,500.0,Enebolig,Eier (Selveier),3,171.0,235.0,,1925,5,3770.0,267.0,,3118982.0,,G - gul,,,,Ja,30948.0,,,,,,,,,,,,14672650.0,235.0,62436.8085106383,13663595.451167727,0.0712501869078821
62,166261447,Romslig 2-roms hjørneleilighet med balkong - Kjøkken fra 2015 & vinduer fra 2013 - Attraktiv beliggenhet,"Gråsteinveien 34, 1155 Oslo",3150000.0,59.86767,10.81589,https://www.finn.no/realestate/homes/ad.html?finnkode=166261447,15147.0,3245944.0,2388.0,Leilighet,Andel,1,58.0,58.0,,1954,,52319.0,64.0,13968.0,911785.0,80797.0,F - rød,,,,Ja,,,,,,,,,,,,,3245944.0,58.0,55964.55172413793,4366464.054366896,-0.29654732375807136
63,166261368,Nyoppført og strøken 3(4)-roms selveier over to plan med utleiedel. Balkong + terrasse. Garasjeplass og heis.,"Svingen 13B, 0192 Oslo",8750000.0,59.900707,10.779994,https://www.finn.no/realestate/homes/ad.html?finnkode=166261368,230020.0,8985064.0,4793.0,Leilighet,Eier (Selveier),3,126.0,126.0,2,2018,4,1362.0,,7302.0,1985343.0,5044.0,,,,,Ja,,,,,,,,,,,,,8985064.0,126.0,71310.03174603175,7938243.348053091,0.12387163321057493
64,160855429,Tiltalende enderekkehus med fantastisk utsikt. Solrikt og barnevennlig. Hage. Garasje med to plasser. Ekeberg skole,"Vardeveien 13 E, 1182 Oslo",11700000.0,59.895065,10.793291,https://www.finn.no/realestate/homes/ad.html?finnkode=160855429,303650.0,12003650.0,4000.0,Rekkehus,Eier (Selveier),3,151.0,151.0,,2007,5,2333.0,172.0,,2199814.0,,E - rød,,,,Ja,,,,,,,,,,,,,12003650.0,151.0,79494.37086092716,9251397.500143602,0.26043614899602474
65,166261179,Munkelia | Attraktiv 2-roms topp- og endeleilighet i trehusbebyggelse | Garasje | Nordvestvendt balkong på 7 kvm,"Mikrobølgen 2A, 1151 Oslo",3300000.0,59.868008,10.812361,https://www.finn.no/realestate/homes/ad.html?finnkode=166261179,16348.0,3552879.0,3573.0,Leilighet,Andel,1,53.0,53.0,2,1986,2,7752.0,59.0,17027.0,1044719.0,236531.0,E - rød,,,,Ja,,,,,,,,,,,,,3552879.0,53.0,67035.45283018867,4103833.2239487935,-0.1441632088719409
66,166249828,Lys og arealeffektiv 4-roms med solrik balkong - Oppussingsobjekt/potensial - Fyring/Vv. inkl. - Godt vedlikeholdt gård,"Balders gate 20, 0263 Oslo",7950000.0,59.9193,10.7115,https://www.finn.no/realestate/homes/ad.html?finnkode=166249828,212872.0,8162872.0,4110.0,Leilighet,Eier (Selveier),3,94.0,94.0,4,1936,4,1051.0,103.0,,1796157.0,,G - mørkegrønn,,,,,,,,,,,,,,,,,8162872.0,94.0,86839.06382978724,6257406.033377235,0.26583034026529617
67,165763912,Årvoll/Disen - Delikat og lekker 3-roms med solrik vestvendt balkong - Endeleilighet med lys fra 3 sider - Må ses!,"Traverveien 26, 0588 Oslo",3900000.0,59.943,10.8038,https://www.finn.no/realestate/homes/ad.html?finnkode=165763912,15257.0,3987516.0,4833.0,Leilighet,Andel,2,67.0,67.0,3,1955,3,33125.0,74.0,21436.0,957370.0,72259.0,G - mørkegrønn,,,,,,,,,,,,,,,,,3987516.0,67.0,59515.164179104475,4839199.549119481,-0.19358084399593345
68,166260651,Moderne og lekker 4-roms med god planløsning I 2 solrike balkonger I Ny i 2017 I Garasjeplass I Utbyggergaranti I Heis,"Mørtelverksbakken 13, 0580 Oslo",5500000.0,59.935066,10.806494,https://www.finn.no/realestate/homes/ad.html?finnkode=166260651,151915.0,5651915.0,2597.0,Leilighet,Eier (Selveier),3,74.0,74.0,3,2017,,9180.0,82.0,9944.0,1133304.0,,B - mørkegrønn,,,,,,,,,,,,,,,,,5651915.0,74.0,76377.22972972973,5206882.711704824,0.08201307697695626
69,166260513,Eksklusiv familieleilighet for den kresne. Egen hageparsell på 230 kvm. med epletrær og hyggegaranti. Peis og parkering*,"Damplassen 24, 0852 Oslo",10850000.0,59.944317,10.732809,https://www.finn.no/realestate/homes/ad.html?finnkode=166260513,7932.0,10900231.0,3934.0,Leilighet,Andel,3,100.0,104.0,1,1923,4,7575.0,118.0,2500.0,1448677.0,42299.0,E - oransje,,,,Ja,,,,,,,,,,,,,10900231.0,104.0,104809.91346153847,6782667.69421344,0.47441349188270543
70,166260312,"Flott, innholdsrik og romslig 3-roms selveier med terrasse, hage og garasje. Rolig, solrik og usjenert beliggenhet.","P.A. Holms vei 25 A, 1164 Oslo",4650000.0,59.85875,10.815028,https://www.finn.no/realestate/homes/ad.html?finnkode=166260312,127400.0,4777400.0,2718.0,Leilighet,Eier (Selveier),2,71.0,75.0,1,1993,3,3656.0,82.0,17340.0,1091029.0,,D - rød,,,,Ja,,,,,,,,,,,,,4777400.0,75.0,63698.666666666664,5259408.877788445,-0.09612217432213299
71,166260147,Pen 3-roms i 2.etasje med rolig beliggenhet. Flott utsikt fra leilighet. Varmtvann og fyring inkludert.,"Ekebergveien 33, 0196 Oslo",3300000.0,59.901363,10.77608,https://www.finn.no/realestate/homes/ad.html?finnkode=166260147,99375.0,3404356.0,3208.0,Leilighet,Eier (Selveier),2,44.0,44.0,2,1937,3,448.0,49.0,20496.0,807286.0,4981.0,F - mørkegrønn,,,,Ja,,,,,,,,,,,,,3404356.0,44.0,77371.72727272728,3631097.729196209,-0.06447921921247435
72,165323501,"KAMPEN HAGEBY - Innholdsrikt og idyllisk rekkehus med hage, balkong, garasjeplass og god intern beliggenhet!","Kampen hageby 55, 0655 Oslo",8850000.0,59.91169,10.785455,https://www.finn.no/realestate/homes/ad.html?finnkode=165323501,222472.0,9072472.0,2422.0,Rekkehus,Eier (Selveier),3,102.0,113.0,3,1994,,3636.0,130.0,9396.0,1502717.0,,,,,482 65 908,,,,,,,,,,,,,,9072472.0,113.0,80287.36283185841,7255403.188966025,0.2234983151143748
73,166100507,"Flott 3-roms med høy standard, sydvent balkong, heis og ildsted. Attraktiv beliggenhet og varmtvann og fyring inkludert!","Kirkeveien 49A, 0368 Oslo",5250000.0,59.9276,10.7136,https://www.finn.no/realestate/homes/ad.html?finnkode=166100507,1032.0,5365032.0,3256.0,Leilighet,Andel,2,63.0,63.0,4,1937,3,464.0,,,1378216.0,114000.0,F - mørkegrønn,,,469 40 765,,,,,,,,,,,,,,5365032.0,63.0,85159.23809523809,4629094.884784998,0.1475409809098185
74,165887757,Sjarmerende og pen 2-roms med nyoppusset bad og flott kjøkken. Topp-/endeleilighet med kort vei til T-bane og marka!,"Folke Bernadottes vei 5A, 0862 Oslo",3200000.0,59.9642,10.7383,https://www.finn.no/realestate/homes/ad.html?finnkode=165887757,8219.0,3226219.0,2315.0,Leilighet,Andel,1,36.0,38.0,3,1960,1,6399.0,,34360.0,825819.0,18000.0,,,,469 40 765,,,,13449.0,,,,,,,,,,3226219.0,38.0,84900.5,3315940.732694486,-0.027430500655665213
75,166260055,Lekker 2(3)-r i klassisk gård. Kjøkken fra 2016. Peis. Lave felleskost. 10 kvm bodplass. Indre gård på begge sider.,"Neuberggata 10 C, 0367 Oslo",4490000.0,59.9257,10.7141,https://www.finn.no/realestate/homes/ad.html?finnkode=166260055,115147.0,4672510.0,2373.0,Leilighet,Eier (Selveier),1,52.0,52.0,4,1898,2,805.0,57.0,21742.0,1195179.0,67363.0,E - oransje,,,,,,,,,,,,,,,,,4672510.0,52.0,89855.96153846153,4051307.057865173,0.14265684113791188
76,166206612,Lys og strøken 2-roms selveier med sydvendt balkong | Pusset opp 2019 | Bad 2011 | Heis | Sentral og rolig beliggenhet,"Oskar Braatens gate 9, 0474 Oslo",3390000.0,59.9327,10.7613,https://www.finn.no/realestate/homes/ad.html?finnkode=166206612,93567.0,3593042.0,2521.0,Leilighet,Eier (Selveier),1,36.0,36.0,5,1993,2,690.0,39.0,4540.0,,109475.0,G - rød,,,454 23 592,,,,,,,,,,,,,,3593042.0,36.0,99806.72222222222,3210888.400527245,0.11245153831938737
77,166132099,OPPUSSINGSOBJEKT: Stille og tilbaketrukket. Skap ditt drømmehjem i 4-mannsbolig på populære Tåsen med solrik hage.,"Spångbergveien 23A, 0853 Oslo",5790000.0,59.9421,10.7463,https://www.finn.no/realestate/homes/ad.html?finnkode=166132099,1032.0,5829032.0,2519.0,Leilighet,Andel,2,73.0,73.0,2,1920,4,12059.0,80.0,17692.0,982257.0,38000.0,C - oransje,,,980 27 690,,,,,,,,,,,,,,5829032.0,73.0,79849.75342465754,5154356.545621203,0.12300866057466564
78,165812704,"Pen, gjennomgående og arealeffektiv 2-roms selveier med fin utsikt  - Parkeringsplass* - Peis","Bergsliens gate 9C, 0354 Oslo",3950000.0,59.9254,10.7285,https://www.finn.no/realestate/homes/ad.html?finnkode=165812704,117522.0,4160215.0,2875.0,Leilighet,Eier (Selveier),1,46.0,46.0,4,1898,2,752.0,51.0,34774.0,1073509.0,92693.0,G - oransje,,,,,,,,,,,,,,,,,4160215.0,46.0,90439.45652173914,3736150.0613634503,0.10751106975218505
79,165877464,Torshov - Arealeffektiv og lys 1-roms selveier - Attraktiv og sentral beliggenhet - Perfekt førstegangskjøp,"Sandakerveien 23C, 0473 Oslo",2490000.0,59.9335,10.7614,https://www.finn.no/realestate/homes/ad.html?finnkode=165877464,79162.0,2618138.0,1984.0,Leilighet,Eier (Selveier),0,21.0,21.0,5,1936,1,696.0,24.0,,502573.0,48976.0,F - mørkegrønn,,,,,,,,,,,,,,,,,2618138.0,21.0,124673.23809523809,2422995.909272937,0.07745862454956765
80,165706295,"Lys og sjarmerende 2-roms med rosett, fløydører og vedovn -Sentral beliggenhet i stille gatetun -Kjøkken og bad fra 2013","Krumgata 2, 0170 Oslo",4700000.0,59.9223,10.7374,https://www.finn.no/realestate/homes/ad.html?finnkode=165706295,127022.0,4827022.0,2500.0,Leilighet,Eier (Selveier),1,60.0,60.0,3,1898,2,236.0,66.0,,1204320.0,,G - oransje,,,,,,,,,,,,,,,,,4827022.0,60.0,80450.36666666667,4471516.386534138,0.07650212690532321
81,166258564,Lys og stor 2-roms endeleilighet - Solrik balkong 12 kvm  - Lave felleskostnader - Marka starter rett utenfor døra.,"Kristine Bonnevies vei 15, 0592 Oslo",3400000.0,59.95101,10.82959,https://www.finn.no/realestate/homes/ad.html?finnkode=166258564,102480.0,3521705.0,2259.0,Leilighet,Eier (Selveier),1,52.0,52.0,1,1964,2,22810.0,57.0,11142.0,784450.0,19225.0,F - rød,,,,Ja,,,,,,,,,,,,,3521705.0,52.0,67725.09615384616,4051307.057865173,-0.14009431205099077
82,166258374,Moderne og delikat 3/4-roms med balkong | Garasjepl. | Heis | Felles takterrasse | Fjernvarme inkl | Attraktivt område!,"Gøteborggata 32, 0566 Oslo",6350000.0,59.926342,10.769264,https://www.finn.no/realestate/homes/ad.html?finnkode=166258374,167540.0,6522124.0,3562.0,Leilighet,Eier (Selveier),2,81.0,85.0,6,2014,3,1225.0,94.0,22090.0,1546788.0,4583.0,C - mørkegrønn,,,,Ja,,,,,,,,,,,,,6522124.0,85.0,76730.8705882353,5784670.53862465,0.11998868170775268
83,166258183,Lekker 1 roms med bad/wc fra 2019 og kjøkken fra 2016. Solrik vestvendt balkong. Fyring og varmtvann inkl.,"Ole Brumms vei 40, 0979 Oslo",2250000.0,59.949673,10.918269,https://www.finn.no/realestate/homes/ad.html?finnkode=166258183,15147.0,2398147.0,2284.0,Leilighet,Andel,,31.0,31.0,4,1968,1,132037.0,34.0,,438249.0,133000.0,D - rød,,,,Ja,,,,,,,,,,,,,2398147.0,31.0,77359.58064516129,2948257.5701091425,-0.20651798583580216
84,165778979,"Lekker 4-roms leilighet over 2 plan med vestvendt takterrasse, flott utsikt over byen - 2 store garasjeplasser","Hans C. Gjefles vei 8, 1182 Oslo",7600000.0,59.8994,10.7892,https://www.finn.no/realestate/homes/ad.html?finnkode=165778979,192754.0,7792754.0,2444.0,Leilighet,Eier (Selveier),3,97.0,98.0,,2010,4,1363.0,106.0,,,,,,,,,,,,,,,,,,,,,7792754.0,98.0,79517.89795918367,6467510.697711716,0.18640303842363082
85,166257810,"Påkostet og moderne enebolig over to plan på 163 m² - Stor, solrik terrasse - Garasje - Ljan skole - Meget barnevennlig!","Storåsveien 26 A, 1169 Oslo",9500000.0,59.846184,10.797738,https://www.finn.no/realestate/homes/ad.html?finnkode=166257810,252650.0,9752650.0,,Enebolig,Eier (Selveier),4,158.0,163.0,,2002,6,639.0,179.0,,2510286.0,,D - oransje,,,,,20103.0,,,,,,,,,,,,9752650.0,163.0,59832.20858895705,9881711.49314705,-0.013146681856834874
86,166257686,Lekkert lavenergihus med flott beliggenhet i øverste rekke - Optimale solforhold og takterrasse med sjøutsikt - Garasje,"Stenbråtveien 83 B, 1283 Oslo",3250000.0,59.85375,10.82143,https://www.finn.no/realestate/homes/ad.html?finnkode=166257686,15147.0,6250147.0,9914.0,Rekkehus,Andel,3,120.0,133.0,,2014,4,13732.0,156.0,53285.0,1363424.0,2985000.0,B - gul,,,,Ja,,,,,,,,,,,,,6250147.0,133.0,46993.58646616541,8305926.510638434,-0.28436431395371287
87,165224852,2-roms selveierleilighet - Oppussingsobjekt - Garasjeplass - Kort vei til Stovner Senter og T-bane!,"Tokerudberget 15, 0986 Oslo",2050000.0,59.9638,10.9235,https://www.finn.no/realestate/homes/ad.html?finnkode=165224852,54492.0,2185492.0,4062.0,Leilighet,Eier (Selveier),1,45.0,47.0,3,1972,2,21485.0,52.0,38224.0,560832.0,81000.0,E - rød,,,473 30 360,,,,,,,,,,,,,,2185492.0,47.0,46499.82978723404,3788676.2274470706,-0.5501757028998266
88,166106500,Innbydende 2-roms med 8 m² solrik balkong. Nytt bad kommer 2020. Walk-in closet. Kort vei til T-bane/buss og senter.,"Kristins vei 16, 0669 Oslo",2850000.0,59.914852,10.834188,https://www.finn.no/realestate/homes/ad.html?finnkode=166106500,8219.0,2985219.0,2896.0,Leilighet,Andel,1,44.0,48.0,1,1965,2,99969.0,53.0,19925.0,633286.0,127000.0,,,,482 03 069,,,,,,,,,,,,,,2985219.0,48.0,62192.0625,3841202.393530691,-0.2521123299145245
89,165931745,Tiltalende 3-roms leilighet i et rolig og tilbaketrukket område med nærhet til marka|Kort vei til kollektiv transport,"Rødbergveien 1C, 0591 Oslo",3650000.0,59.9467,10.8166,https://www.finn.no/realestate/homes/ad.html?finnkode=165931745,8220.0,4030550.0,4457.0,Leilighet,Andel,2,65.0,71.0,,1953,3,29469.0,78.0,6838.0,915226.0,372330.0,G - mørkegrønn,,,930 45 258,,,,,,,,,,,,,,4030550.0,71.0,56768.30985915493,5049304.213453963,-0.2253476112074022
90,165952876,Pen og arealeffektiv 1(2)-roms | 13 min til Oslo S | Varmt vann og fyring inkl. | Nytt bad fra 2019 | Heis |Balkong,"Garver Ytteborgs vei 139, 0977 Oslo",2200000.0,59.9507,10.9189,https://www.finn.no/realestate/homes/ad.html?finnkode=165952876,8219.0,2341219.0,2201.0,Leilighet,Andel,0,31.0,34.0,1,1969,1,132000.0,31.0,6164.0,821670.0,133000.0,E - mørkegrønn,,,906 76 337,,,,,,,,,,,,,,2341219.0,34.0,68859.38235294117,3105836.0683600036,-0.28261121041406057
91,166257536,"Innholdsrik og stor enebolig med dobbeltgarasje, 3-roms hybelleilighet, solrike uteplasser og meget sentral beliggenhet.","Brennaveien 120B, 1279 Oslo",6300000.0,59.845978,10.844045,https://www.finn.no/realestate/homes/ad.html?finnkode=166257536,172650.0,6472650.0,,Enebolig,Eier (Selveier),5,167.0,213.0,,1986,,740.0,235.0,,2010364.0,,F - mørkegrønn,,,,Ja,9108.0,,,,,,,,,,,,6472650.0,213.0,30388.028169014084,12508019.797328075,-0.6587844150215627
92,166093579,Lys og betydelig påkostet 2-R - Fyr/VV. inkl. - Brannbalk. - Ingen innsyn/ vakkert utsyn - Kjøkken/overflater fra 2016,"Torshovgata 15C, 0476 Oslo",3250000.0,59.933,10.766,https://www.finn.no/realestate/homes/ad.html?finnkode=166093579,12075.0,3319075.0,3035.0,Leilighet,Aksje,1,37.0,37.0,4,1939,2,6717.0,42.0,19509.0,769148.0,57000.0,D - rød,,,485 02 050,,,,,,,,,,,,,,3319075.0,37.0,89704.72972972973,3263414.5666108653,0.01691206935525358
93,165966547,"Lekker 4-roms selveier i 2 etg |V.v & fyring ink|Vestvendt og solrik balkong |Parkering|Kort vei til ""alt""!","Johan Castbergs vei 36, 0673 Oslo",3200000.0,59.9215,10.8674,https://www.finn.no/realestate/homes/ad.html?finnkode=165966547,,,4185.0,Leilighet,Eier (Selveier),3,71.0,71.0,2,1969,4,33109.0,78.0,20616.0,860282.0,187000.0,F - mørkegrønn,3387000.0,,906 76 337,,,,,,,,,,,,,,3200000.0,71.0,45070.42253521127,5049304.213453963,-0.45609964447505114
94,165457855,Pen og attraktiv 3-roms toppleilighet med vestvendt balkong og peis. Flotte og parkmessige fellesareal.,"Prost Hallings vei 14, 0666 Oslo",3500000.0,59.9156,10.8187,https://www.finn.no/realestate/homes/ad.html?finnkode=165457855,8219.0,3565219.0,3845.0,Leilighet,Andel,2,67.0,67.0,3,1953,3,99627.0,74.0,17000.0,830137.0,57000.0,G - oransje,,,406 17 469,,,,,,,,,,,,,,3565219.0,67.0,53212.22388059701,4839199.549119481,-0.3055238420835167
95,166255985,Lys og gjennomgående 3-roms - Flotte parkmessige fellesarealer - Begge soverom mot bakgård - P-plass etter venteliste,"Kirkeveien 83, 0361 Oslo",7450000.0,59.931892,10.723712,https://www.finn.no/realestate/homes/ad.html?finnkode=166255985,204317.0,7757350.0,4365.0,Leilighet,Eier (Selveier),2,92.0,95.0,4,1922,3,,104.0,70411.0,1579741.0,103033.0,F - lysegrønn,,,,Ja,,,,,,,,,,,,,7757350.0,95.0,81656.31578947368,6309932.199460855,0.2065158494666175
96,166260513,Eksklusiv familieleilighet for den kresne. Egen hageparsell på 230 kvm. med epletrær og hyggegaranti. Peis og parkering*,"Damplassen 24, 0852 Oslo",10850000.0,59.944317,10.732809,https://www.finn.no/realestate/homes/ad.html?finnkode=166260513,7932.0,10900231.0,3934.0,Leilighet,Andel,3,100.0,104.0,1,1923,4,7575.0,118.0,2500.0,1448677.0,42299.0,E - oransje,,,,Ja,,,,,,,,,,,,,10900231.0,104.0,104809.91346153847,6782667.69421344,0.47441349188270543
97,166062693,Lekker og gjennomført 2-roms med klassiske detaljer som stukkatur og rosett. Skjermet beliggenhet! Soverom mot bakgård.,"Zetlitz' gate 1D, 0165 Oslo",3980000.0,59.9201,10.7419,https://www.finn.no/realestate/homes/ad.html?finnkode=166062693,1032.0,3981032.0,2204.0,Leilighet,Andel,1,52.0,52.0,1,1875,3,571.0,59.0,,,,,,,954 01 810,,,,,,,,,,,,,,3981032.0,52.0,76558.30769230769,4051307.057865173,-0.017498477222057218
98,166013812,"Stor, velholdt og gjennomgående 3-roms med garasje - Innglasset balkong på 6,3 m² - Smart planløsning - Stort bad - Heis","Heimdalsgata 36, 0578 Oslo",4895000.0,59.9146,10.767,https://www.finn.no/realestate/homes/ad.html?finnkode=166013812,8357.0,4999847.0,4636.0,Leilighet,Andel,2,77.0,83.0,4,1988,3,1986.0,91.0,26035.0,1225933.0,96490.0,E - rød,,,,,,,,,,,,,,,,,4999847.0,83.0,60239.12048192771,5679618.206457409,-0.12747670133498268
99,165958481,"Ettertraktet klassisk 3(4)-roms med spisekjøkken - Vestvendt balkong på 4 m² - Takhøyde 2,84m - Utvidet bad fra 2012","Fossveien 12A, 0551 Oslo",5800000.0,59.9239,10.7551,https://www.finn.no/realestate/homes/ad.html?finnkode=165958481,1032.0,5989259.0,4571.0,Leilighet,Andel,2,72.0,74.0,4,1899,4,665.0,82.0,51786.0,1212191.0,188227.0,G - rød,,,,,,,,,,,,,,,,,5989259.0,74.0,80935.93243243243,5206882.711704824,0.13998634949019184
100,165975426,"Gjennomgående og arealsmart 2-roms med balkong - Takhøyde målt til 2,76 m - Originalt tregulv - Separat kjøkken","Colletts gate 10B, 0169 Oslo",3100000.0,59.925198,10.736917,https://www.finn.no/realestate/homes/ad.html?finnkode=165975426,1032.0,3167036.0,2737.0,Leilighet,Andel,1,35.0,35.0,3,1936,2,626.0,39.0,32360.0,807080.0,66004.0,G - rød,,,,,,,,,,,,,,,,,3167036.0,35.0,90486.74285714286,3158362.2344436245,0.0027425217105658817
101,165964174,Perfekt førstegangskjøp! - Romslig 2-roms med innglasset veranda på 14 m² og privat hage - God planløsning - Nær marka,"Ravnkollbakken 74, 0971 Oslo",2195000.0,59.9691,10.8922,https://www.finn.no/realestate/homes/ad.html?finnkode=165964174,8219.0,2463631.0,3543.0,Leilighet,Andel,1,48.0,62.0,1,1971,2,70844.0,65.0,6285.0,623253.0,260412.0,E - rød,,,,,,,,,,,,,,,,,2463631.0,62.0,39735.98387096774,4576568.718701378,-0.6193132513248631
102,166254827,VEITVET- Lekker 3-roms leilighet over to plan med stor vestvendt balkong med gode solforhold. Ingen dok.avgift.,"Beverveien 5, 0596 Oslo",3400000.0,59.942566,10.844882,https://www.finn.no/realestate/homes/ad.html?finnkode=166254827,15120.0,3517763.0,3964.0,Leilighet,Andel,2,86.0,86.0,3,1955,3,28287.0,,45516.0,1120022.0,102643.0,F - rød,,,,,,,304932.0,,,,,,,,,,3517763.0,86.0,40904.22093023256,5837196.704708271,-0.50642538905492
103,155021048,Klassisk 3½-roms hjørneleilighet |To peiser|Separat kjøkken|Bibliotek|Arealeffektiv planløsning|Delikat bad|Må sees!,"Thorvald Meyers gate 85 G, 0550 Oslo",6690000.0,59.9193,10.7591,https://www.finn.no/realestate/homes/ad.html?finnkode=155021048,172572.0,7026572.0,5182.0,Leilighet,Eier (Selveier),2,105.0,105.0,4,1892,3,2692.0,116.0,15258.0,1601472.0,164000.0,G - oransje,,,971 99 566,,,,,22 80 54 95,,,,,,,,,7026572.0,105.0,66919.73333333334,6835193.860297061,0.027614129773041896
104,166254650,Meget pen 2-roms leilighet med hyggelig peisovn og solrik balkong. Lave fellesutgifter. Ingen dokumentavgift.,"Agmund Bolts Vei 23, 0664 Oslo",3200000.0,59.9143,10.8138,https://www.finn.no/realestate/homes/ad.html?finnkode=166254650,8857.0,3364699.0,2386.0,Leilighet,Andel,1,45.0,45.0,1,1954,2,28.0,50.0,19466.0,653190.0,155842.0,F - oransje,,,,,,,,,,,,,,,,,3364699.0,45.0,74771.08888888889,3683623.8952798294,-0.09055851290778172
105,163279821,Lekker og arealeffektiv 2-roms med markterrasse i meget attraktivt boområde sentralt i Oslo - Totalrenovert i 2018,"Parkveien 1 A, 0350 Oslo",4100000.0,59.9226,10.7319,https://www.finn.no/realestate/homes/ad.html?finnkode=163279821,104754.0,4245543.0,3091.0,Leilighet,Eier (Selveier),1,46.0,46.0,,1892,2,783.0,50.0,1909.0,,40789.0,G - rød,,,,,,,,,,,,,,,,,4245543.0,46.0,92294.41304347826,3736150.0613634503,0.12781404089941617
106,166254265,"Lys og lekker 4-roms selveier-/hjørneleilighet m/2 balkonger, garasjeplass med elbillader, heis og fin utsikt over byen.","Konows gate 83 C, 0196 Oslo",6500000.0,59.901356,10.792369,https://www.finn.no/realestate/homes/ad.html?finnkode=166254265,173650.0,6673650.0,3774.0,Leilighet,Eier (Selveier),3,92.0,96.0,2,2011,4,5390.0,105.0,8470.0,1654396.0,,D - rød,,,,Ja,,,,,,,,,,,,,6673650.0,96.0,69517.1875,6362458.365544476,0.047752098511169905
107,149453862,Lys og pen 2-roms selveier med god standard | God planløsning | Bygg fra 2006 | Fransk balkong | Attraktiv beliggenhet,"Jacob Aalls gate 11, 0368 Oslo",3490000.0,59.9274,10.7149,https://www.finn.no/realestate/homes/ad.html?finnkode=149453862,97847.0,3587847.0,2413.0,Leilighet,Eier (Selveier),1,35.0,35.0,2,2006,2,261.0,40.0,5774.0,991257.0,,D - rød,,,916 24 767,,,,,,,,,,,,,,3587847.0,35.0,102509.91428571429,3158362.2344436245,0.1274986881410456
108,163189020,Vertikaldelt tomannsbolig over 3 plan | Fjordutsikt | Høyt og fritt beliggende | Flott naturtomt | Kjk/bad 2015,"Øvre Ljanskoll vei 30J, 1169 Oslo",6800000.0,59.8433,10.7996,https://www.finn.no/realestate/homes/ad.html?finnkode=163189020,176222.0,6976222.0,,Tomannsbolig,Eier (Selveier),3,117.0,127.0,3,1968,5,447.0,142.0,,1996803.0,,G - rød,,2019,926 01 461,,12919.0,,,23 03 01 88,,,,,,,,,6976222.0,127.0,54930.88188976378,7990769.514136711,-0.1357795553000436
109,166253061,Brekke - Meget tiltalende 3-roms leilighet med usjenert balkong. Nytt bad. Kjøkken fra 2016. God planløsning.,"Frysjaveien 7 A, 0883 Oslo",4100000.0,59.960598,10.767831,https://www.finn.no/realestate/homes/ad.html?finnkode=166253061,15147.0,4273147.0,3939.0,Leilighet,Andel,2,66.0,66.0,1,1953,,20430.0,71.0,,1244302.0,158000.0,E - rød,,,,Ja,,,,,,,,,,,,,4273147.0,66.0,64744.65151515151,4786673.38303586,-0.11348511996258814
110,165932547,Lys 2-roms i 11. etg - Balkong med flott utsikt - Heis - Ingen forkjøpsrett - Rett ved Østmarka,"Bølerlia 6, 0691 Oslo",2800000.0,59.8818,10.8461,https://www.finn.no/realestate/homes/ad.html?finnkode=165932547,1062.0,2913643.0,3476.0,Leilighet,Andel,1,45.0,52.0,11,1955,2,37784.0,52.0,18755.0,684192.0,112581.0,,,,,,,,,,,,,,,,,,2913643.0,52.0,56031.596153846156,4051307.057865173,-0.329635371132472
111,161583152,"Stor, lys og innholdsrik 4-roms I Privat sydvendt terrasse og hage på ca. 26m² I Garasje I Barnevennlig og rolig område","Badebakken 12, 0467 Oslo",6900000.0,59.94657,10.762237,https://www.finn.no/realestate/homes/ad.html?finnkode=161583152,190700.0,7241293.0,4801.0,Leilighet,Eier (Selveier),3,94.0,94.0,1,2000,4,18323.0,104.0,43348.0,1752424.0,150593.0,E - rød,,,,Ja,,,,,,,,,,,,,7241293.0,94.0,77035.03191489361,6257406.033377235,0.14603405404097813
112,161665165,Meget attraktiv hjørneleilighet med god planløsning og klassiske detaljer på ettertraktet beliggenhet i rolig gate,"Frydenlundgata 4, 0169 Oslo",6500000.0,59.92373,10.736532,https://www.finn.no/realestate/homes/ad.html?finnkode=161665165,173650.0,6673650.0,3349.0,Leilighet,Eier (Selveier),2,85.0,87.0,1,1899,3,732.0,94.0,23516.0,1559804.0,,G - oransje,,,,Ja,,,,,,,,,,,,,6673650.0,87.0,76708.62068965517,5889722.870791891,0.12495799088334891
113,165276873,"Lys og gjennomgående 4-roms endeleilighet med terrasse, platting & hage | Panoramautsikt over Oslo by | Garasjeplass","Åsstubben 66, 0381 Oslo",9000000.0,59.9297,10.652,https://www.finn.no/realestate/homes/ad.html?finnkode=165276873,241022.0,9271022.0,3883.0,Leilighet,Eier (Selveier),3,112.0,115.0,1,1984,4,31766.0,122.0,42318.0,1877972.0,30000.0,,,,,,,,,,,,,,,,,,9271022.0,115.0,80617.58260869565,7360455.521133265,0.23077179932916358
114,165754762,Meget attraktiv 2-roms leilighet med god standard - Nytt kjøkken 2018 - Balkong - Garasje - Heis - Sentral beliggenhet,"Biskop Jens Nilssøns gate 19B, 0659 Oslo",3950000.0,59.9071,10.7957,https://www.finn.no/realestate/homes/ad.html?finnkode=165754762,,,3266.0,Leilighet,Andel,1,53.0,55.0,4,2004,2,11070.0,60.0,,1012741.0,,C - lysegrønn,,,,,,,,,,,,,,,,,3950000.0,55.0,71818.18181818182,4208885.556116035,-0.06348232022682332
115,166250466,"VESTRE HOLMEN, Stor, utbygget halvpart av vertikaldelt tomannsbolig med skjermet beliggenhet - Solrike uterom - Garasje","Arnebråtveien 72, 0771 Oslo",14100000.0,59.952213,10.659955,https://www.finn.no/realestate/homes/ad.html?finnkode=166250466,,,4283.0,Tomannsbolig,Andel,4,189.0,202.0,,1964,,10093.0,223.0,,3257636.0,367000.0,F - rød,14467000.0,,,Ja,,,,,,,,,,,,,14100000.0,202.0,69801.9801980198,11930231.97040825,0.16709911717094172
116,166250273,"Arealeffektiv 2-roms selveierleilighet med balkong, fyring, VV inkludert. El anlegg 13. Sentral og populær beliggenhet.","Olaf Schous vei 3, 0572 Oslo",3100000.0,59.93025,10.782363,https://www.finn.no/realestate/homes/ad.html?finnkode=166250273,89792.0,3236792.0,2904.0,Leilighet,Eier (Selveier),1,35.0,35.0,4,1938,2,1936.0,,18487.0,648348.0,47000.0,F - mørkegrønn,,,,Ja,,,,,,,,,,,,,3236792.0,35.0,92479.77142857143,3158362.2344436245,0.02452910284558918
117,166250215,"Lys, gjennomgående 2-roms leilighet renovert i 2010. God plan- og romløsning. Populær beliggenhet og nærhet til ""alt""","Toftes gate 47, 0552 Oslo",3400000.0,59.923912,10.760331,https://www.finn.no/realestate/homes/ad.html?finnkode=166250215,7932.0,3633935.0,3498.0,Leilighet,Andel,1,34.0,34.0,1,1890,,796.0,40.0,30440.0,754169.0,226003.0,G - rød,,,,Ja,,,,,,,,,,,,,3633935.0,34.0,106880.44117647059,3105836.0683600036,0.15703313887531856
118,166249915,"HOLMEN, Lys og gj.gående 3-roms med sydvendt balkong - Peis - Idyllisk sameie - P-plass - Sentralt - Nær marka","Lybekkveien 39B, 0770 Oslo",3980000.0,59.948246,10.662393,https://www.finn.no/realestate/homes/ad.html?finnkode=166249915,,,4237.0,Leilighet,Eier (Selveier),2,65.0,65.0,1,1952,3,11965.0,72.0,,1135943.0,111000.0,C - oransje,4091000.0,,,Ja,,,,,,,,,,,,,3980000.0,65.0,61230.769230769234,4734147.21695224,-0.17351978910495625
119,159887485,"Korsvoll: Attraktiv og romslig 3-roms selveier med utsikt mot byen, heisadkomst, sydvendt balkong. Populær beliggenhet.","Frysjaveien 5, 0883 Oslo",4600000.0,59.95978,10.766213,https://www.finn.no/realestate/homes/ad.html?finnkode=159887485,134472.0,5069404.0,4995.0,Leilighet,Eier (Selveier),2,68.0,68.0,1,1969,,21015.0,74.0,142990.0,1266949.0,334932.0,C - oransje,,,,Ja,,,,,,,,,,,,,5069404.0,68.0,74550.05882352941,4891725.715203101,0.03567810822816497
120,156549551,2-roms toppleilighet med 18m² vestvendt takterrasse - Selveier - Heis - Rolig sidegate - Vv. & fyring inkl. - Må sees!,"Laura Gundersens gate 4B, 0168 Oslo",3790000.0,59.92651,10.732413,https://www.finn.no/realestate/homes/ad.html?finnkode=156549551,107200.0,3950041.0,2217.0,Leilighet,Eier (Selveier),1,29.0,29.0,6,1938,2,912.0,33.0,734.0,701891.0,52841.0,G - mørkegrønn,,,,,,,,,,,,,,,,,3950041.0,29.0,136208.3103448276,2843205.237941901,0.3287939379195013
121,165827519,Stor og lys 2-roms leilighet beliggende i 2. etasje med solrik og usjenert balkong. Fyring og varmtvann inkl.,"Oppsaltoppen 19 B, 0687 Oslo",2970000.0,59.8989,10.8507,https://www.finn.no/realestate/homes/ad.html?finnkode=165827519,8357.0,2996357.0,2931.0,Leilighet,Andel,1,54.0,54.0,2,1958,2,19665.0,60.0,11857.0,945294.0,18000.0,E - mørkegrønn,,2018,902 61 819,,,,,22 69 10 13,,,,,,,,,2996357.0,54.0,55488.09259259259,4156359.3900324143,-0.327242327047351
122,166249619,"Nydelig, klassisk 2-roms leilighet med flott beliggenhet ved Sofienbergparken. Nytt bad fra 2012. Ingen dokumentavgift.","Teglverksgata 1, 0553 Oslo",2600000.0,59.9239,10.765,https://www.finn.no/realestate/homes/ad.html?finnkode=166249619,1032.0,2767648.0,2893.0,Leilighet,Andel,2,24.0,24.0,2,1887,2,285.0,26.0,5553.0,536130.0,166616.0,F - rød,,,,,,,,,,,,,,,,,2767648.0,24.0,115318.66666666667,2580574.4075237988,0.06998584931052498
123,166249447,"Stor og lekker 3-roms selveier i moderne bygg. Solrik, vestvendt balkong på 14,5 kvm. Garasjeplass og heis.","Klaus Torgårds vei 12B, 0372 Oslo",6900000.0,59.951355,10.7255745,https://www.finn.no/realestate/homes/ad.html?finnkode=166249447,183820.0,7091598.0,2796.0,Leilighet,Eier (Selveier),2,87.0,87.0,4,2005,3,17798.0,,12382.0,1324164.0,7778.0,,,,,Ja,,,,,,,,,,,,,7091598.0,87.0,81512.62068965517,5889722.870791891,0.1857017572610129
124,166249227,3-roms hjørneleilighet med innglasset balkong| V.vann og fyring inkl. | Ingen forkjøpsrett | Bad tatt i regi av brl | Kj,"Kalbakkveien 17, 0953 Oslo",2900000.0,59.9535,10.8747,https://www.finn.no/realestate/homes/ad.html?finnkode=166249227,1032.0,2968032.0,4506.0,Leilighet,Andel,2,63.0,71.0,5,1959,3,90365.0,78.0,20718.0,824025.0,67000.0,C - lysegrønn,,,909 35 456,,,,150000.0,,,,,,,,,,2968032.0,71.0,41803.2676056338,5049304.213453963,-0.5313513473625608
125,165691491,St. Hanshaugen - Lys og moderne 3-roms leilighet i 4. etasje - Pusset opp i 2016 - Populært område - Sentralt,"Glückstads gate 5C, 0170 Oslo",5500000.0,59.9223,10.7377,https://www.finn.no/realestate/homes/ad.html?finnkode=165691491,148492.0,5708136.0,3313.0,Leilighet,Eier (Selveier),2,64.0,64.0,4,1899,2,805.0,70.0,11423.0,1263442.0,59644.0,F - rød,,,,,,,,,,,,,,,,,5708136.0,64.0,89189.625,4681621.050868619,0.1982480971944387
126,163599305,ÅRVOLL SENTER - 3roms m/garasjeplass |Markterrasse |Felles takterrasse |Nedbetalt fellesgjeld |Marka,"Årvollveien 21, 0590 Oslo",5300000.0,59.9456,10.8095,https://www.finn.no/realestate/homes/ad.html?finnkode=163599305,8220.0,5308220.0,3294.0,Leilighet,Andel,2,76.0,79.0,1,2013,3,5777.0,86.0,,1216420.0,,D - mørkegrønn,,,417 58 300,,,,,,,,,,,,,,5308220.0,79.0,67192.65822784811,5469513.542122927,-0.02993311802528531
127,165902144,"Lekker 4-roms på 97 kvm m/ vestvendt markterrasse på 19 kvm, 2 bad, gasspeis, heis og garasjeplass m/lader til elbil","Grefsenkollveien 16 C, 0490 Oslo",7480000.0,59.9534,10.797,https://www.finn.no/realestate/homes/ad.html?finnkode=165902144,207187.0,7687187.0,4224.0,Leilighet,Eier (Selveier),4,97.0,100.0,1,2011,,3542.0,110.0,,1829918.0,,C - rød,,,,,,,,,,,,,,,,,7687187.0,100.0,76871.87,6572563.029878957,0.15665104934092788
128,166247445,"Lekker og attraktiv 2-roms selveierleilighet m/nytt kjøkken, balkong, heis og lave f.utgifter. Fyring og varmtvann inkl","Trondheimsveien 2F, 0560 Oslo",3990000.0,59.919003,10.761102,https://www.finn.no/realestate/homes/ad.html?finnkode=166247445,116650.0,4106650.0,2738.0,Leilighet,Eier (Selveier),1,51.0,51.0,3,2009,,2958.0,56.0,19342.0,1055302.0,,D - mørkegrønn,,,,Ja,,,,,,,,,,,,,4106650.0,51.0,80522.54901960785,3998780.8917815527,0.02661807337615585
129,166247443,"Ullevål - Attraktiv 2-roms selveier m/balkong, usjenert beliggenhet og moderne løsninger. Bo rolig, men sentralt","Ullevålsalléen 4C, 0852 Oslo",3500000.0,59.93964,10.731941,https://www.finn.no/realestate/homes/ad.html?finnkode=166247443,104700.0,3616907.0,2918.0,Leilighet,Eier (Selveier),1,37.0,37.0,2,1962,,1597.0,41.0,5268.0,825080.0,12207.0,G - rød,,,,Ja,,,,,,,,,,,,,3616907.0,37.0,97754.24324324324,3263414.5666108653,0.10284518042835877
130,166247434,"St.Hanshaugen v/Pilestredet Park - Arealeffektiv 2-roms fra 2013 m/heis og attraktiv beliggenhet. Bo rolig, men sentralt","Nordahl Bruns gate 8, 0165 Oslo",3150000.0,59.91881,10.741802,https://www.finn.no/realestate/homes/ad.html?finnkode=166247434,7960.0,3256856.0,2511.0,Leilighet,Andel,1,30.0,30.0,2,1868,2,753.0,34.0,,810083.0,98896.0,G - oransje,,,,Ja,,,,,,,,,,,,,3256856.0,30.0,108561.86666666667,2895731.404025522,0.11752458985781367
131,166247468,Flott og romslig 2-roms med stor balkong. Svært sentralt på Løren. Alt inkl. i felleskost. Heis. Ingen forkjøpsrett!,"Peter Møllers vei 4C, 0585 Oslo",3500000.0,59.932,10.7932,https://www.finn.no/realestate/homes/ad.html?finnkode=166247468,1532.0,3501532.0,3009.0,Leilighet,Andel,1,45.0,48.0,3,2009,2,3810.0,55.0,,949941.0,,D - mørkegrønn,,,,,,,,,,,,,,,,,3501532.0,48.0,72948.58333333333,3841202.393530691,-0.09258485388991744
132,165882804,"3-roms oppussingsobjekt m/stort potensial, sydvendt balkong mot grøntområdet - Nytt bad i 2015 - Kort vei til buss/bane","Bergkrystallen 33, 1155 Oslo",3200000.0,59.8678,10.8206,https://www.finn.no/realestate/homes/ad.html?finnkode=165882804,8219.0,3484219.0,3119.0,Leilighet,Andel,2,66.0,72.0,1,1953,3,62448.0,72.0,5649.0,,276000.0,G - rød,,,452 48 711,,,,,,,,,,,,,,3484219.0,72.0,48391.930555555555,5101830.379537583,-0.3813554574926279
133,165695555,Moderne & lys 3 roms hjørneleilighet med flott utsikt | Solrik vestvendt beliggenhet | Fyring & Vv inkl.,"Frysjaveien 3, 0883 Oslo",4700000.0,59.9594,10.7653,https://www.finn.no/realestate/homes/ad.html?finnkode=165695555,126572.0,5140572.0,5245.0,Leilighet,Eier (Selveier),2,72.0,72.0,7,1968,3,21016.0,80.0,142991.0,1327354.0,314000.0,C - oransje,,,,,,,,,,,,,,,,,5140572.0,72.0,71396.83333333333,5101830.379537583,0.007564984031793287
134,166246702,Stor og lys 2-roms med moderniseringsbehov - Solrik balkong på 10 kvm - Heis - Nært t-bane og Marka!,"Dr Dedichens vei 76, 0675 Oslo",2600000.0,59.925674,10.868384,https://www.finn.no/realestate/homes/ad.html?finnkode=166246702,15147.0,2692147.0,2864.0,Leilighet,Andel,1,47.0,47.0,2,1972,2,75000.0,52.0,,,77000.0,D - rød,,,,Ja,,,,,,,,,,,,,2692147.0,47.0,57279.72340425532,3788676.2274470706,-0.3416776611924419
135,166246559,Klassisk 2-roms selveierleilighet med svært rolig beliggenhet i indre gårdsrom - Rosett og stukkatur - Mulighet for peis,"Neuberggata 10B, 0367 Oslo",3900000.0,59.925846,10.713958,https://www.finn.no/realestate/homes/ad.html?finnkode=166246559,,,2430.0,Leilighet,Eier (Selveier),1,50.0,50.0,4,1898,,805.0,57.0,22363.0,1178069.0,69288.0,F - rød,3969288.0,,,Ja,,,,,,,,,,,,,3900000.0,50.0,78000.0,3946254.725697932,-0.011790405269852755
136,165177343,Attraktiv toppleilighet 3(4) R med moderne standard | Solrik vestvendt balkong | Forkjøpsrett avklart | Peis & 3 boder,"Glimmerveien 38, 1155 Oslo",3890000.0,59.8703,10.8181,https://www.finn.no/realestate/homes/ad.html?finnkode=165177343,8357.0,3997357.0,2934.0,Leilighet,Andel,2,64.0,64.0,4,1957,4,52320.0,70.0,16926.0,923433.0,99000.0,F - rød,,,,,,,,,,,,,,,,,3997357.0,64.0,62458.703125,4681621.050868619,-0.15801103561673813
137,157641852,"Rålekker, lys, og renovert 3-roms i hjertet av Majorstuen - Velkommen!","Industrigata 47A, 0357 Oslo",5300000.0,59.92683,10.722089,https://www.finn.no/realestate/homes/ad.html?finnkode=157641852,144872.0,5444872.0,3561.0,Leilighet,Eier (Selveier),2,62.0,62.0,3,1940,,451.0,68.0,22760.0,1337229.0,,F - mørkegrønn,,,,Ja,,,,,,,,,,,,,5444872.0,62.0,87820.51612903226,4576568.718701378,0.17372471901527753
138,165900818,"5-roms selveier med terrasse, peis og flott utsikt mot Akerselva, Kubaparken og St. Hanshaugen","Marselis' gate 35A, 0551 Oslo",8600000.0,59.9243,10.7545,https://www.finn.no/realestate/homes/ad.html?finnkode=165900818,235872.0,8990161.0,6595.0,Leilighet,Eier (Selveier),4,131.0,131.0,,1904,5,623.0,149.0,,1858338.0,154289.0,G - oransje,,,,,,,,,,,,,,,,,8990161.0,131.0,68627.18320610687,8200874.178471194,0.09189000139200765
139,166245899,"Stor og gjennomgående 3(4)-roms selveier med to balkonger. God takhøyde - 2,93m. Heis og garasjeleie*.","Smalgangen 26, 0188 Oslo",5000000.0,59.912804,10.7593155,https://www.finn.no/realestate/homes/ad.html?finnkode=166245899,136750.0,5136750.0,4532.0,Leilighet,Eier (Selveier),2,95.0,99.0,2,1992,3,8058.0,,36134.0,1455236.0,,,,,,,,,,,,,,,,,,,5136750.0,99.0,51886.36363636364,6520036.863795337,-0.23845944611493053
140,166245902,Lekker og innflytningsklar 2 roms på 63 kvm med 12 kvm balkong og flott utsikt. Garasjeplass. Varmt vann inkl.! Bør ses!,"Maria Dehlis vei 33, 1084 Oslo",2750000.0,59.9502,10.903059,https://www.finn.no/realestate/homes/ad.html?finnkode=166245902,15285.0,2852285.0,4039.0,Leilighet,Andel,1,63.0,63.0,7,1976,2,55130.0,70.0,,768571.0,87000.0,F - rød,,,,Ja,,,,,,,,,,,,,2852285.0,63.0,45274.36507936508,4629094.884784998,-0.4842409323071646
141,166245892,Arealeffektiv og lekker 1 roms med alkove. Rehabilitert bad. Påkostet kjøkken. Fyring inkl. Nært buss og t-banestasjon.,"Christoffer Hellums vei 32, 0951 Oslo",2200000.0,59.949234,10.872151,https://www.finn.no/realestate/homes/ad.html?finnkode=166245892,15285.0,2399285.0,2971.0,Leilighet,Andel,,29.0,29.0,3,1963,1,6708.0,33.0,,442467.0,184000.0,C - rød,,,,Ja,,,,,,,,,,,,,2399285.0,29.0,82733.96551724138,2843205.237941901,-0.16976124438524742
142,166245656,"Iladalen. Bo sentralt til i en koselig 2-roms leilighet med fin utsikt, originale tregulv, v.vann/fyring inkl.","Maridalsveien 64B, 0458 Oslo",3800000.0,59.930443,10.753692,https://www.finn.no/realestate/homes/ad.html?finnkode=166245656,7960.0,3902960.0,2791.0,Leilighet,Andel,1,47.0,47.0,4,1932,2,3455.0,52.0,20400.0,889482.0,95000.0,F - lysegrønn,,,,Ja,,,,,,,,,,,,,3902960.0,47.0,83041.70212765958,3788676.2274470706,0.029718561894418016
143,166245642,Majorstuen/Jessenløkken - Flott gjennomgående 3-roms eierleilighet. Flott beliggenhet med nærhet til alt. God standard,"Jacob Aalls gate 60, 0364 Oslo",6900000.0,59.93202,10.72597,https://www.finn.no/realestate/homes/ad.html?finnkode=166245642,191670.0,7182670.0,3949.0,Leilighet,Eier (Selveier),2,86.0,86.0,4,1924,,20303.0,97.0,,1573411.0,91000.0,F - mørkegrønn,,,,Ja,,,,,,,,,,,,,7182670.0,86.0,83519.41860465116,5837196.704708271,0.2074205149519166
144,166245587,Delikat og innbydende 3 roms topp-og endeleilighet. 12 kvm balkong med flott utsikt. Garasjeplass. Lillomarka som nabo!,"Ravnkollbakken 53, 0971 Oslo",2400000.0,59.96612,10.89128,https://www.finn.no/realestate/homes/ad.html?finnkode=166245587,15285.0,2848285.0,5889.0,Leilighet,Andel,2,75.0,91.0,4,1970,3,70844.0,107.0,,851268.0,433000.0,G - rød,,,,Ja,,,,,,,,,,,,,2848285.0,91.0,31299.835164835164,6099827.535126373,-0.7615434390817182
145,166245497,"Flott 3-roms med vestvendt og solrik balkong på 25m2, garasjeplass og utsikt. Velkommen.","Landingsveien 82, 0767 Oslo",4700000.0,59.952324,10.651605,https://www.finn.no/realestate/homes/ad.html?finnkode=166245497,15257.0,4776257.0,3387.0,Leilighet,Andel,2,74.0,89.0,3,1974,,57614.0,95.0,9690.0,1280136.0,61000.0,F - rød,,,,Ja,,,,,,,,,,,,,4776257.0,89.0,53665.808988764045,5994775.202959132,-0.22723110499227772
146,166245268,"Grefsen stasjon. Stilren og supersentral 3-roms selveier i nybygg med garanti. Balkong, garasje og heis.","Hans Nordahls gate 48, 0481 Oslo",5400000.0,59.94086,10.7799015,https://www.finn.no/realestate/homes/ad.html?finnkode=166245268,151900.0,5551900.0,2467.0,Leilighet,Eier (Selveier),2,59.0,64.0,3,2018,3,1044.0,71.0,5641.0,1244224.0,,C - mørkegrønn,,,,Ja,,,,,,,,,,,,,5551900.0,64.0,86748.4375,4681621.050868619,0.1704957831697751
147,166245497,"Flott 3-roms med vestvendt og solrik balkong på 25m2, garasjeplass og utsikt. Velkommen.","Landingsveien 82, 0767 Oslo",4700000.0,59.952324,10.651605,https://www.finn.no/realestate/homes/ad.html?finnkode=166245497,15257.0,4776257.0,3387.0,Leilighet,Andel,2,74.0,89.0,3,1974,,57614.0,95.0,9690.0,1280136.0,61000.0,F - rød,,,,Ja,,,,,,,,,,,,,4776257.0,89.0,53665.808988764045,5994775.202959132,-0.22723110499227772
148,162754835,"Flott 3,5-roms i attraktiv og barnevennlig område - Kjøkken fra 2019 og bad i regi av borettslaget - Vestvendt balkong.","Kampheimveien 32B, 0685 Oslo",3650000.0,59.897198,10.848608,https://www.finn.no/realestate/homes/ad.html?finnkode=162754835,15147.0,3688147.0,3139.0,Leilighet,Andel,2,72.0,72.0,,1956,3,23964.0,80.0,14478.0,982693.0,23000.0,G - mørkegrønn,,,,Ja,,,,,,,,,,,,,3688147.0,72.0,51224.26388888889,5101830.379537583,-0.3244752093881953
149,161453054,Lekker 5-roms med panoramautsikt fra solrik terrasse - Garasjeplass - 2 bad fra 2017 - T-bane og skole 200 meter unna.,"Jerikoveien 23B, 1067 Oslo",4490000.0,59.93396,10.881953,https://www.finn.no/realestate/homes/ad.html?finnkode=161453054,15147.0,4631147.0,5084.0,Leilighet,Andel,4,98.0,112.0,4,1977,5,26023.0,120.0,47987.0,1094770.0,126000.0,E - rød,,,,Ja,,,,,,,,,,,,,4631147.0,112.0,41349.52678571428,7202877.022882404,-0.441675963121007
150,162128295,Rekkehus over tre plan med utbyggingsmulighet. Svært etterspurt og barnevennlig boområde. Garasje og vestvendt terrasse.,"Dalerudveien 2c, 0687 Oslo",6190000.0,59.893784,10.850698,https://www.finn.no/realestate/homes/ad.html?finnkode=162128295,15147.0,6453147.0,4317.0,Rekkehus,Andel,3,97.0,97.0,,1955,5,15106.0,110.0,19660.0,1419940.0,248000.0,D - oransje,,,,Ja,,,,,,,,,,,,,6453147.0,97.0,66527.28865979382,6414984.5316280965,0.005931332013494384
151,165671805,Moderne og lys enebolig med høy standard | Betydelig oppgradert i 2015 | Stor hage med gode solforhold,"Munkerudveien 59C, 1165 Oslo",10000000.0,59.8553,10.8093,https://www.finn.no/realestate/homes/ad.html?finnkode=165671805,251222.0,10251222.0,,Enebolig,Eier (Selveier),3,140.0,163.0,,1978,5,594.0,181.0,,2451575.0,,,,,,,13096.0,,,,,,,,,,,,10251222.0,163.0,62890.93251533742,9881711.49314705,0.03671119318167726
152,166244587,"Meget pen 4-roms topp-/endeleilighet fra 2012 med heis, vestvendt balkong og garasje - Utsikt - V.v og oppvarming inkl.","Bjørnåsveien 19, 1272 Oslo",3500000.0,59.829533,10.833274,https://www.finn.no/realestate/homes/ad.html?finnkode=166244587,104510.0,3604510.0,4470.0,Leilighet,Eier (Selveier),3,80.0,84.0,3,2012,4,3141.0,91.0,9600.0,970868.0,,D - mørkegrønn,,,,Ja,,,,,,,,,,,,,3604510.0,84.0,42910.833333333336,5732144.372541029,-0.463903857594822
153,165897569,Stor 3-roms - Seperat kjøkken - Stor innglasset balkong - Sentralt og rolig,"Disenveien 53, 0587 Oslo",3900000.0,59.9415,10.7981,https://www.finn.no/realestate/homes/ad.html?finnkode=165897569,1032.0,3950738.0,3041.0,Leilighet,Andel,2,74.0,83.0,1,1957,3,30276.0,91.0,,1357637.0,49706.0,G - mørkegrønn,,,417 58 300,,,,,,,,,,,,,,3950738.0,83.0,47599.25301204819,5679618.206457409,-0.36298161639639304
154,166244429,Attraktiv 1(2)-roms/m nyslipte originale tregulv og malte flater 2019. Solrik sydvestvendt balkong. Populær beliggenhet!,"Bentsebrugata 16 B, 0476 Oslo",3300000.0,59.935722,10.761849,https://www.finn.no/realestate/homes/ad.html?finnkode=166244429,15285.0,3522285.0,3714.0,Leilighet,Andel,,36.0,37.0,3,1944,1,1894.0,41.0,8208.0,767628.0,207000.0,E - mørkegrønn,,,,Ja,,,,,,,,,,,,,3522285.0,37.0,95196.8918918919,3263414.5666108653,0.07633586643693668
155,166244309,"UTSIKTSPOST PÅ RØA | 3-roms i 8.etg. med fantastiske sol- og utsiktsforhold, 25m2 balkong og garasjeplass. Velkommen opp","Landingsveien 84, 0767 Oslo",5600000.0,59.953114,10.6517515,https://www.finn.no/realestate/homes/ad.html?finnkode=166244309,15257.0,5676257.0,3387.0,Leilighet,Andel,2,74.0,76.0,8,1974,,57614.0,82.0,9690.0,1267268.0,61000.0,G - rød,,,,Ja,,,,,,,,,,,,,5676257.0,76.0,74687.59210526316,5311935.043872066,0.0663358527251745
156,165885629,"Meget tiltalende leilighet med sovealkove, heis og flott utsikt. Fyring, varmtvann, kabel-tv og internett inkl.","Kranveien 17, 0684 Oslo",2500000.0,59.9039,10.8442,https://www.finn.no/realestate/homes/ad.html?finnkode=165885629,8219.0,2622219.0,2325.0,Leilighet,Andel,0,34.0,34.0,4,1962,1,50946.0,38.0,9027.0,564974.0,114000.0,D - rød,,,907 59 613,,,,,,,,,,,,,,2622219.0,34.0,77124.08823529411,3105836.0683600036,-0.16926203843135568
157,166069716,Pen 2-roms selveier fra 2012 i 3.etg. med attraktiv og rolig beliggenhet nær Akerselva og balkong på ca. 10 kvm,"Nydalsveien 16 B, 0484 Oslo",4050000.0,59.9485,10.7631,https://www.finn.no/realestate/homes/ad.html?finnkode=166069716,,,2270.0,Leilighet,Eier (Selveier),1,47.0,47.0,3,2012,2,1384.0,54.0,5226.0,1120349.0,1960.0,B - mørkegrønn,4051960.0,,970 78 269,,,,,,,,,,,,,,4050000.0,47.0,86170.21276595745,3788676.2274470706,0.06670020339367788
158,166240759,Romslig 3-roms leilighet med moderniseringsbehov. Fyring og varmtvann inkl. Solrik balkong på 7 m². Nærhet til Østmarka.,"Bølerlia 33, 0691 Oslo",3000000.0,59.8811,10.845,https://www.finn.no/realestate/homes/ad.html?finnkode=166240759,8220.0,3106584.0,4126.0,Leilighet,Andel,2,69.0,76.0,3,1956,3,37607.0,77.0,,965863.0,98364.0,F - rød,,,951 82 399,,,,,,,,,,,,,,3106584.0,76.0,40876.10526315789,5311935.043872066,-0.5364324536793408
159,162195339,"WALDEMARS HAGE-Lekker 3-roms hjørneleilighet m/heis og balkong - ""Alt"" inkludert i f.utgiftene - Garasjeplass kan kjøpes","Darres gate 16, 0172 Oslo",5790000.0,59.928017,10.754307,https://www.finn.no/realestate/homes/ad.html?finnkode=162195339,155900.0,5945900.0,3602.0,Leilighet,Eier (Selveier),2,71.0,71.0,5,2009,,3312.0,78.0,11786.0,1333793.0,,D - mørkegrønn,,,,Ja,,,,,,,,,,,,,5945900.0,71.0,83745.07042253521,5049304.213453963,0.16345145212482137
160,155281740,Sentrum/St.Hanshaugen - Attraktiv 2(3)-roms m/balkong. Vendt i sin helhet mot bakgård - Ingen f.gjeld - Renovert 2004,"Keysers gate 4, 0165 Oslo",3490000.0,59.91675,10.743231,https://www.finn.no/realestate/homes/ad.html?finnkode=155281740,98400.0,3588400.0,2092.0,Leilighet,Eier (Selveier),1,41.0,43.0,2,1880,,324.0,48.0,12632.0,943703.0,,G - rød,,,,Ja,,,,,,,,,,,,,3588400.0,43.0,83451.16279069768,3578571.5631125886,0.0027427046310997127
161,166108694,Ny og strøken 3-romsleilighet i 6.etasje - Sydvestv. balkong - P-plass med lader - Heis - Ingen dok.avgift - In-ordning,"Lørenveien 64B, 0585 Oslo",2800000.0,59.9293,10.7979,https://www.finn.no/realestate/homes/ad.html?finnkode=166108694,8219.0,5388219.0,8725.0,Leilighet,Andel,2,66.0,66.0,6,2018,3,1043.0,73.0,19827.0,1301680.0,2580000.0,B - mørkegrønn,,,988 09 826,,,,,,,,,,,,,,5388219.0,66.0,81639.68181818182,4786673.38303586,0.11837922550964741
162,166091385,"Flott, smart og arealeffektiv 3-roms med romslig balkong! Sentralt m/nærhet til både t-bane og marka. Vv/fyring inkl.","Bølerskrenten 14, 0691 Oslo",2990000.0,59.8809,10.843,https://www.finn.no/realestate/homes/ad.html?finnkode=166091385,8220.0,3061526.0,3306.0,Leilighet,Andel,2,55.0,55.0,4,1955,2,,60.0,,807498.0,63306.0,G - mørkegrønn,,,,,,Eiet,,,,,,,,,,,3061526.0,55.0,55664.10909090909,4208885.556116035,-0.31828441467104085
163,166243149,"Påkostet og nyoppusset 4-roms endeleil. med heis, peis, garasje og to balkonger beliggende i ambassadestrøket på Frogner","Drammensveien 53, 0271 Oslo",11700000.0,59.913162,10.70992,https://www.finn.no/realestate/homes/ad.html?finnkode=166243149,306122.0,12006122.0,4385.0,Leilighet,Eier (Selveier),3,102.0,102.0,4,1977,4,1761.0,112.0,,1985435.0,,F - rød,,,,Ja,,,,,,,,,,,,,12006122.0,102.0,117707.07843137255,6677615.362046199,0.5866557442780991
164,163428746,Lys 2-roms på 68 kvm. - Vestvendt balkong med flotte sol- og utsiktsforhold - Garasjeplass m/mulighet for lader - Heis,"Grefsenkollveien 21, 0490 Oslo",4500000.0,59.954494,10.798568,https://www.finn.no/realestate/homes/ad.html?finnkode=163428746,129372.0,4629372.0,2662.0,Leilighet,Eier (Selveier),1,68.0,68.0,3,2006,,5996.0,75.0,24000.0,1319667.0,,D - rød,,,,,,,,,,,,,,,,,4629372.0,68.0,68079.0,4891725.715203101,-0.055123926474689
165,165806434,Lys og tiltalende 1-roms med balkong | Mot bakgård | Spektakulær takterrasse | VV & Fyring inkl | Attraktiv beliggenhet,"Bygdøy allé 37, 0265 Oslo",3490000.0,59.9171,10.7096,https://www.finn.no/realestate/homes/ad.html?finnkode=165806434,93572.0,3604323.0,3195.0,Leilighet,Eier (Selveier),0,36.0,36.0,5,1969,1,610.0,40.0,3594.0,909583.0,20751.0,F - mørkegrønn,,,,,,,,,,,,,,,,,3604323.0,36.0,100120.08333333333,3210888.400527245,0.11558629923201025
166,166242386,Lys 3-roms med solfylt balkong - Parkering - Rolig område - Umiddelbar nærhet til togstasjon og matbutikk - Ingen dokavg,"Stjerneblokkveien 21, 1083 Oslo",2800000.0,59.95296,10.893359,https://www.finn.no/realestate/homes/ad.html?finnkode=166242386,15285.0,3083090.0,3837.0,Leilighet,Andel,2,66.0,66.0,1,1953,,81632.0,73.0,8975.0,824025.0,267805.0,E - rød,,,,Ja,,,,,,,,,,,,,3083090.0,66.0,46713.48484848485,4786673.38303586,-0.4399033372691381
167,166242665,"Pent og innbydende rekkehus med 3 soverom, garasje og kjøkken fra 2014. Bakhage med markterrasse. Meget barnevennlig.","Ravnåsveien 9H, 1254 Oslo",3890000.0,59.838238,10.793507,https://www.finn.no/realestate/homes/ad.html?finnkode=166242665,7960.0,4265960.0,6378.0,Rekkehus,Andel,3,96.0,103.0,,1982,,26508.0,112.0,32904.0,1065441.0,368000.0,F - gul,,,,Ja,,,,,,,,,,,,,4265960.0,103.0,41417.087378640776,6730141.528129819,-0.45592892933518847
168,166242423,"Attraktiv 3-roms endeleilighet i 4-mannsbolig med nytt kjøkken, garasje og solrik terrasse med utsikt. Markanært!","Nedslagsveien 6, 0687 Oslo",4600000.0,59.897827,10.853666,https://www.finn.no/realestate/homes/ad.html?finnkode=166242423,14535.0,4861022.0,4534.0,Leilighet,Andel,2,66.0,66.0,2,1964,3,28877.0,73.0,40016.0,893176.0,246487.0,D - oransje,,,,Ja,,,,,,,,,,,,,4861022.0,66.0,73651.84848484848,4786673.38303586,0.015413025778629574
169,166242394,Lys og gjennomgående 3-roms designperle med moderne standard og klassiske detaljer. Mulighet for å lage to soverom til.,"Toftes gate 29, 0555 Oslo",3910000.0,59.927536,10.760638,https://www.finn.no/realestate/homes/ad.html?finnkode=166242394,116700.0,4108724.0,2980.0,Leilighet,Eier (Selveier),2,43.0,43.0,2,1900,3,299.0,47.0,9562.0,1032379.0,82024.0,F - oransje,,,,Ja,,,,,,,,,,,,,4108724.0,43.0,95551.72093023256,3578571.5631125886,0.13814880194575352
170,166242400,"Romslig 3,5-roms klassiske hjørneleilighet. Utsikt over frodig park. Trafikkstille og sentralt. Felles takterrasse.","Jarlegata 19A, 0656 Oslo",4500000.0,59.908195,10.7723465,https://www.finn.no/realestate/homes/ad.html?finnkode=166242400,7960.0,4685960.0,5159.0,Leilighet,Andel,2,67.0,67.0,4,1895,3,713.0,77.0,58878.0,1072856.0,178000.0,G - oransje,,,,Ja,,,,,,,,,,,,,4685960.0,67.0,69939.70149253731,4839199.549119481,-0.0321785206537335
171,166242405,"Stor, lekker og klassisk 3(4)-roms med balkong. Totalrenovert 2016. Stort baderom og gjestetoalett. Lave felleskostnad","Markveien 21A, 0554 Oslo",7300000.0,59.925167,10.756875,https://www.finn.no/realestate/homes/ad.html?finnkode=166242405,193650.0,7493650.0,3015.0,Leilighet,Eier (Selveier),2,95.0,95.0,2,1890,3,239.0,110.0,,1489261.0,,F - oransje,,,,Ja,,,,,,,,,,,,,7493650.0,95.0,78880.52631578948,6309932.199460855,0.17193106369043143
172,166242390,Innbydende 4-roms med meget attraktiv beliggenhet.Trappefri adkomst. To garasjeplasser. Nærhet til T-bane og marka.,"Skådalsveien 36 A, 0781 Oslo",7900000.0,59.961983,10.689951,https://www.finn.no/realestate/homes/ad.html?finnkode=166242390,214400.0,8114400.0,2258.0,Leilighet,Eier (Selveier),3,95.0,95.0,1,1994,,2218.0,106.0,17656.0,1607159.0,,E - oransje,,,,Ja,,,,,,,,,,,,,8114400.0,95.0,85414.73684210527,6309932.199460855,0.25151532951914213
173,166242402,"Klassisk 3-roms i praktfull jugendgård med balkong, fantastiske lys- og utsiktsforhold og nydelig forhage! Må sees!","Fougstads gate 25 A, 0173 Oslo",7300000.0,59.92765,10.747188,https://www.finn.no/realestate/homes/ad.html?finnkode=166242402,195650.0,7495650.0,2486.0,Leilighet,Eier (Selveier),2,80.0,80.0,4,1904,3,923.0,89.0,28498.0,1532467.0,,G - oransje,,,,,,,,,,,,,,,,,7495650.0,80.0,93695.625,5522039.708206547,0.3055755478848141
174,166242387,Delikat og tidsmessig 3-roms i toppetasje med solrik innglasset balkong - Svært romslig og god planløsning - Sentralt,"Otto Sogns vei 27, 0681 Oslo",3700000.0,59.899563,10.818441,https://www.finn.no/realestate/homes/ad.html?finnkode=166242387,15138.0,3759258.0,3257.0,Leilighet,Andel,2,72.0,79.0,4,1963,3,16726.0,87.0,24564.0,965863.0,44120.0,E - rød,,,,Ja,,,,,,,,,,,,,3759258.0,79.0,47585.54430379747,5469513.542122927,-0.3749680830069053
175,166242371,Lys og stilren 2-roms andelsleilighet med overbygget balkong på ca. 10 kvm. Umiddelbar nærhet til T-banestopp og marka!,"Dr. Dedichens vei 100, 0675 Oslo",2650000.0,59.927116,10.868169,https://www.finn.no/realestate/homes/ad.html?finnkode=166242371,15285.0,2743285.0,2864.0,Leilighet,Andel,1,47.0,47.0,1,1972,2,75000.0,52.0,,623253.0,78000.0,D - rød,,,,Ja,,,,,,,,,,,,,2743285.0,47.0,58367.765957446805,3788676.2274470706,-0.3228605703281229
176,166242364,Stilren og arealeffektiv 2-roms med sentral beliggenhet - Lave fellesutgifter,"Gabels gate 8 B, 0272 Oslo",3200000.0,59.91243,10.708205,https://www.finn.no/realestate/homes/ad.html?finnkode=166242364,91670.0,3313382.0,1819.0,Leilighet,Eier (Selveier),1,33.0,33.0,2,1900,,506.0,36.0,7133.0,855151.0,21712.0,F - rød,,,,Ja,,,,,,,,,,,,,3313382.0,33.0,100405.51515151515,3053309.9022763832,0.081743203959741
177,166240398,Attraktiv 4-roms selveier med hybel (3R + 1R ) - 2 balkonger - 2 bad - Garasjeplass og heis - Skjermet beliggenhet!,"Biermanns gate 9, 0556 Oslo",6950000.0,59.930107,10.761922,https://www.finn.no/realestate/homes/ad.html?finnkode=166240398,185631.0,7135631.0,4722.0,Leilighet,Eier (Selveier),3,83.0,85.0,3,2005,4,413.0,93.0,16220.0,1510029.0,,D - mørkegrønn,,,,Ja,,,,,,,,,,,,,7135631.0,85.0,83948.6,5784670.53862465,0.2098892762479938
178,165342317,VÅLERENGA/KAMPEN: Familievennlig 4-r m/svært god utsikt! Balkong med supre solforhold. Garasjeplass m/el-lader. Heis.,"Østerdalsgata 2 A, 0658 Oslo",5750000.0,59.90978,10.789995,https://www.finn.no/realestate/homes/ad.html?finnkode=165342317,8219.0,5885950.0,4854.0,Leilighet,Andel,3,75.0,75.0,4,1992,4,1072.0,83.0,43872.0,1202208.0,127731.0,F - rød,,,,,,,,,,,,,,,,,5885950.0,75.0,78479.33333333333,5259408.877788445,0.11254951525608092
179,156053054,Stor 4-R hjørneleilighet fra 2017 med 2 fantastiske balkonger - Vannbåren gulvvarme - Garasjeplass m/ladeboks - Solrikt!,"Fernanda Nissens gate 3 F, 0484 Oslo",7700000.0,59.945343,10.767699,https://www.finn.no/realestate/homes/ad.html?finnkode=156053054,210572.0,7910572.0,3753.0,Leilighet,Eier (Selveier),3,77.0,80.0,4,2017,4,8634.0,,,1535616.0,,C - mørkegrønn,,,,Ja,,,,,,,,,,,,,7910572.0,80.0,98882.15,5522039.708206547,0.35945278829986016
180,166241976,Lys og gjennomgående 3-roms toppleilighet! Usjenert og solrik balkong. Skjermet og barnevennlig. Vv/fyr inkludert.,"Rugveien 29, 0679 Oslo",3350000.0,59.893734,10.815274,https://www.finn.no/realestate/homes/ad.html?finnkode=166241976,,,3860.0,Leilighet,Andel,2,67.0,67.0,4,1958,3,75929.0,72.0,32392.0,934952.0,182000.0,G - rød,3532000.0,,,,,,,,,,,,,,,,3350000.0,67.0,50000.0,4839199.549119481,-0.3677889788010553
181,165888624,"Lys, romslig og innholdsrik 3(4) roms toppleilighet|Garasje|Balkong|Peis|To boder|Kort vei til kollektivt og CC Vest.","Ombergveien 18, 0283 Oslo",4850000.0,59.9206,10.6401,https://www.finn.no/realestate/homes/ad.html?finnkode=165888624,121250.0,4971250.0,3502.0,Leilighet,Eier (Selveier),2,74.0,74.0,3,1968,3,8717.0,81.0,,1341019.0,,G - oransje,,,452 51 817,,,,,,,,,,,,,,4971250.0,74.0,67179.05405405405,5206882.711704824,-0.04631003126820055
182,159415204,"Enderekkehus over 3 plan, renovert i 2016/17, underetasje med egen inngang, dobbel garasje, solrik terrasse med utsikt","Høgdaveien 42D, 0680 Oslo",6750000.0,59.8855,10.8155,https://www.finn.no/realestate/homes/ad.html?finnkode=159415204,169972.0,6919972.0,,Rekkehus,Eier (Selveier),3,122.0,122.0,,1955,5,972.0,135.0,,562558.0,,G - oransje,,,922 44 022,,12311.0,,,22 69 10 13,,,,,,,,,6919972.0,122.0,56721.08196721312,7728138.683718609,-0.11045631898634056
183,159795442,Splitter ny og påkostet 4-roms med 2 herlige balkonger og 2 bad - Flere tilvalg - Garasjeplass inkl.  Må sees!,"Sigurd Hoels vei 75, 0655 Oslo",6490000.0,59.918648,10.789639,https://www.finn.no/realestate/homes/ad.html?finnkode=159795442,179122.0,6669122.0,3939.0,Leilighet,Eier (Selveier),3,74.0,76.5,5,2019,4,,,,,,C - mørkegrønn,,,,,,Eiet,,,,,,,,,,,6669122.0,76.5,87178.06535947713,5338198.126913875,0.22260005046697273
184,166241748,Attraktivt beliggende 1-roms med god planløsning i ambassadestrøket - Perfekt førstegangskjøp - Lave felleskostnader,"Inkognitogata 6, 0258 Oslo",2250000.0,59.919273,10.724496,https://www.finn.no/realestate/homes/ad.html?finnkode=166241748,73732.0,2331565.0,1117.0,Leilighet,Eier (Selveier),,20.0,20.0,1,1889,1,612.0,25.0,12570.0,587871.0,7833.0,D - rød,,,,Ja,,,,,,,,,,,,,2331565.0,20.0,116578.25,2370469.7431893167,-0.016548423459147088
185,166241669,"Innholdsrik og moderne vertikaldelt tomannsbolig over tre plan med solrike uteplasser, fjordutsikt og garasje","Steinhammerveien 31, 1177 Oslo",8800000.0,59.874638,10.787739,https://www.finn.no/realestate/homes/ad.html?finnkode=166241669,235150.0,9035150.0,,Tomannsbolig,Eier (Selveier),3,116.0,123.0,,1952,4,578.0,140.0,,1824028.0,,F - oransje,,,,Ja,13680.0,,,,,,,,,,,,9035150.0,123.0,73456.50406504064,7780664.84980223,0.14948073519740923
186,165953131,Lys og pen 3-roms selveiet toppleilighet med ny balkong - Bad fra ca. 2010 - Sentral beliggenhet - God planløsning,"Libakkveien 6B, 1184 Oslo",3350000.0,59.8888,10.8033,https://www.finn.no/realestate/homes/ad.html?finnkode=165953131,91354.0,3695887.0,3940.0,Leilighet,Eier (Selveier),2,66.0,66.0,4,1954,3,52530.0,74.0,31045.0,1014876.0,254533.0,F - rød,,,,,,,,,,,,,,,,,3695887.0,66.0,55998.28787878788,4786673.38303586,-0.2586150983731983
187,166241527,"Innbydende, lys og usjenert utsiktsleilighet med fjordgløtt. God standard og planløsning. Må sees!","Enebakkveien 25A, 0657 Oslo",3890000.0,59.90637,10.782425,https://www.finn.no/realestate/homes/ad.html?finnkode=166241527,7960.0,4004056.0,4413.0,Leilighet,Andel,1,57.0,57.0,5,1935,2,5167.0,64.0,11816.0,974700.0,106096.0,G - mørkegrønn,,,,Ja,,,,,,,,,,,,,4004056.0,57.0,70246.59649122808,4313937.888283275,-0.07454330278513588
188,164005113,"Innflytningsklar gjennomgående 3(4)-roms byleilighet med overflateoppgraderinger, delikat nytt bad, og kjøkken. Balkong.","Oskar Braatens gate 2, 0474 Oslo",4700000.0,59.933125,10.761017,https://www.finn.no/realestate/homes/ad.html?finnkode=164005113,7960.0,5257960.0,4805.0,Leilighet,Andel,2,69.0,69.0,2,2001,3,1186.0,76.0,,1357003.0,550000.0,D - rød,,,,Ja,,,,,,,,,,,,,5257960.0,69.0,76202.31884057971,4944251.881286722,0.06151745310360468
189,166241443,Hyggelig 2-romsleilighet med attraktiv og skjermet beliggenhet - Balkong med utsikt - Felles takterrasse - IN-ordning.,"Ekebergveien 5A, 0192 Oslo",2450000.0,59.902054,10.772842,https://www.finn.no/realestate/homes/ad.html?finnkode=166241443,15119.0,3474119.0,6454.0,Leilighet,Andel,1,35.0,35.0,6,2007,2,482.0,38.0,13593.0,741111.0,1009000.0,B - rød,,,,Ja,,,,,,,,,,,,,3474119.0,35.0,99260.54285714286,3158362.2344436245,0.09528730868812474
190,166241400,"Delikat, lys toppleilighet med balkong | Originale tregulv | Varmtvann/fyring ink.| Mul. leie av p-plass | Sentralt","Sandakerveien 67 E, 0477 Oslo",3250000.0,59.940365,10.770593,https://www.finn.no/realestate/homes/ad.html?finnkode=166241400,19248.0,3478715.0,4550.0,Leilighet,Aksje,1,50.0,50.0,5,1939,2,4203.0,55.0,35140.0,947546.0,209467.0,F - mørkegrønn,,,,Ja,,,212668.0,,,,,,,,,,3478715.0,50.0,69574.3,3946254.725697932,-0.12610398568326175
191,162420992,"Praktisk og innbydende 3-roms i 3. etasje med heis - Balkong - Kort vei til skoler, barnehager m.m.","Granbergstubben 158, 1275 Oslo",2700000.0,59.8285,10.8379,https://www.finn.no/realestate/homes/ad.html?finnkode=162420992,8252.0,2866911.0,5195.0,Leilighet,Andel,2,80.0,80.0,3,1989,3,49514.0,87.0,5524.0,856608.0,158659.0,E - mørkegrønn,,,,,,,,,,,,,,,,,2866911.0,80.0,35836.3875,5522039.708206547,-0.6555121608749808
192,166155495,3-roms med solrik balkong på 9 m² med ettermiddags- og kveldssol. Varmtvann inkludert. Umiddelbar nærhet til Østmarka.,"Rustadgrenda 45, 0693 Oslo",3400000.0,59.873,10.8459,https://www.finn.no/realestate/homes/ad.html?finnkode=166155495,8219.0,3557219.0,3390.0,Leilighet,Andel,2,67.0,72.0,2,1963,3,54613.0,79.0,,965863.0,149000.0,F - oransje,,,951 82 399,,,,,,,,,,,,,,3557219.0,72.0,49405.819444444445,5101830.379537583,-0.36062031348162016
193,160141891,Koselig og innholdsrikt enderekkehus med sjøgløtt - 3 uteplasser - Garasje - Kort reisetid til Oslo sentrum!,"Sloreåsen 22A, 1257 Oslo",3700000.0,59.8448,10.7932,https://www.finn.no/realestate/homes/ad.html?finnkode=160141891,8251.0,3759251.0,3812.0,Rekkehus,Andel,2,74.0,74.0,1,1981,3,40297.0,83.0,17888.0,811016.0,51000.0,,,,,,,,,,,,,,,,,,3759251.0,74.0,50800.68918918919,5206882.711704824,-0.32576161337719967
194,166241391,"Strøken, moderne 2-roms med solrik balkong - heis - god bod/lagringsplass - nær Marka og offentlig kommunikasjon","Brekkeveien 16, 0884 Oslo",3350000.0,59.9693,10.773982,https://www.finn.no/realestate/homes/ad.html?finnkode=166241391,100810.0,3453240.0,2367.0,Leilighet,Eier (Selveier),1,39.0,39.0,2,2011,,4842.0,,4164.0,975393.0,2430.0,D - mørkegrønn,,,,Ja,,,,,,,,,,,,,3453240.0,39.0,88544.61538461539,3368466.8987781066,0.024855206095605098
195,159656117,"Innholdsrik, totalrenovert 3-roms med 2 baderom, mastersuite og romslig balkong. Ulven blir nå en helt ny bydel!","Karl Staaffs vei 38, 0665 Oslo",3800000.0,59.919132,10.8127165,https://www.finn.no/realestate/homes/ad.html?finnkode=159656117,7960.0,3979447.0,3768.0,Leilighet,Andel,2,63.0,63.0,1,1955,,54542.0,70.0,10999.0,792788.0,171487.0,F - rød,,,,Ja,,,134000.0,,,,,,,,,,3979447.0,63.0,63165.8253968254,4629094.884784998,-0.1512184948213129
196,166240731,Tiltalende 3-roms selveier med gode solforhold og garasjeplass med el-punkt! Barnevennlig- Heis Attraktiv beliggenhet!,"Midtoddveien 26 A, 0494 Oslo",5400000.0,59.966167,10.786828,https://www.finn.no/realestate/homes/ad.html?finnkode=166240731,146150.0,5546150.0,2571.0,Leilighet,Eier (Selveier),2,67.0,70.0,2,2005,,4176.0,78.0,,,,D - rød,,,,Ja,,,,,,,,,,,,,5546150.0,70.0,79230.71428571429,4996778.047370343,0.10431067914849201
197,166240655,"Meget attraktiv 2-roms med sentral beliggenhet. Innglasset balkong, god planløsning og heisadkomst.","Dælenenggata 3A, 0567 Oslo",3150000.0,59.925835,10.7744875,https://www.finn.no/realestate/homes/ad.html?finnkode=166240655,7960.0,3217411.0,2725.0,Leilighet,Andel,1,33.0,38.0,3,1958,,994.0,43.0,23961.0,,59451.0,,,,,,,,,,,,,,,,,,3217411.0,38.0,84668.71052631579,3315940.732694486,-0.03016436510347731
198,162646154,"Stort, lyst & innholdsrikt rekkehus over 3 et. med utleiemulighet|Gar.plass|Peiser|2 bad+ vaskerom|3(4) sov|Uteplasser.","Skogbrynet 19E, 0283 Oslo",9390000.0,59.9156,10.6472,https://www.finn.no/realestate/homes/ad.html?finnkode=162646154,238722.0,9628722.0,,Rekkehus,Eier (Selveier),3,163.0,180.0,3,1977,5,131.0,200.0,,2556433.0,,F - oransje,,,452 51 817,,13661.0,,,,,,,,,,,,9628722.0,180.0,53492.9,10774656.316568598,-0.11244623238409446
199,166240620,"Familievennlig halvpart tomannsbolig i stille og rolig område - Stor, solrik hage - Garasje","Bjerkealléen 34, 0487 Oslo",6950000.0,59.948452,10.779975,https://www.finn.no/realestate/homes/ad.html?finnkode=166240620,188872.0,7138872.0,,Tomannsbolig,Eier (Selveier),2,93.0,118.0,,1934,,685.0,133.0,,1949828.0,,G - oransje,,,,Ja,17439.0,,,,,,,,,,,,7138872.0,118.0,60498.91525423729,7518034.019384127,-0.05174988951193704
200,162646154,"Stort, lyst & innholdsrikt rekkehus over 3 et. med utleiemulighet|Gar.plass|Peiser|2 bad+ vaskerom|3(4) sov|Uteplasser.","Skogbrynet 19E, 0283 Oslo",9390000.0,59.9156,10.6472,https://www.finn.no/realestate/homes/ad.html?finnkode=162646154,238722.0,9628722.0,,Rekkehus,Eier (Selveier),3,163.0,180.0,3,1977,5,131.0,200.0,,2556433.0,,F - oransje,,,452 51 817,,13661.0,,,,,,,,,,,,9628722.0,180.0,53492.9,10774656.316568598,-0.11244623238409446
201,163419425,Pen 2-roms hjørneleilighet i 5. etg med heis og stor balkong! Varmtvann inkludert i felleskostn.IN-ordning.Sentralt,"Ekebergveien 5A, 0192 Oslo",2650000.0,59.902054,10.772842,https://www.finn.no/realestate/homes/ad.html?finnkode=163419425,12447.0,3942298.0,7098.0,Leilighet,Andel,1,44.0,44.0,5,2008,,481.0,50.0,14926.0,867095.0,1279851.0,C - rød,,,,Ja,,,,,,,,,,,,,3942298.0,44.0,89597.68181818182,3631097.729196209,0.08222879471846234
202,166240387,Arealeffektiv 2-roms leilighet m/vestvendt balkong og utsikt  - Lave felleskostnader m/v.v + fyring inkl. - Heis!,"Disenveien 27, 0587 Oslo",3150000.0,59.94086,10.794167,https://www.finn.no/realestate/homes/ad.html?finnkode=166240387,7960.0,3186561.0,1754.0,Leilighet,Andel,1,32.0,32.0,5,1957,2,30262.0,36.0,12505.0,726881.0,28601.0,G - mørkegrønn,,,,Ja,,,,,,,,,,,,,3186561.0,32.0,99580.03125,3000783.736192763,0.06006877890255247
203,166240379,Innbydende 2-roms m/vestvendt balkong og flott utsikt - Kjøkken fra 2015 - V.vann/fyring inkl. - IN-ordning - Sentralt!,"Grenseveien 30D, 0571 Oslo",2890000.0,59.92493,10.779707,https://www.finn.no/realestate/homes/ad.html?finnkode=166240379,7960.0,3159556.0,3395.0,Leilighet,Andel,1,36.0,36.0,2,1940,2,3601.0,40.0,14426.0,709491.0,261596.0,F - mørkegrønn,,,,Ja,,,,,,,,,,,,,3159556.0,36.0,87765.44444444444,3210888.400527245,-0.016116147741954023
204,161598102,Lys 3-roms hjørneleilighet med solrik balkong. Utvidet bad. Barnevennlig og nær marka. God intern beliggenhet!,"Kurveien 34, 0494 Oslo",4450000.0,59.96158,10.791124,https://www.finn.no/realestate/homes/ad.html?finnkode=161598102,7932.0,4675932.0,3764.0,Leilighet,Andel,2,67.0,67.0,1,1951,,69070.0,74.0,25856.0,1266949.0,218000.0,,,,,Ja,,,,,,,,,,,,,4675932.0,67.0,69790.02985074627,4839199.549119481,-0.034320823477834494
205,166240226,Moderne og lys 3-roms leilighet med innglasset balkong på 6kvm. Varmtvann og fyring inkludert. Attraktiv område!,"Sigrid Undsets vei 1, 0669 Oslo",3550000.0,59.911793,10.836416,https://www.finn.no/realestate/homes/ad.html?finnkode=166240226,15285.0,3994285.0,6241.0,Leilighet,Andel,2,68.0,78.0,4,1964,3,18469.0,86.0,,869264.0,429000.0,E - lysegrønn,,,,Ja,,,,,,,,,,,,,3994285.0,78.0,51208.782051282054,5416987.376039307,-0.30467523675571506
206,166240222,"Lys og lekker 2-roms leilighet på attraktive Tjuvholmen. Meget arealeffektiv planløsning, solrik balkong og heisadkomst.","Tjuvholmen allé 4, 0252 Oslo",3990000.0,59.908707,10.723046,https://www.finn.no/realestate/homes/ad.html?finnkode=166240222,110970.0,4104959.0,2279.0,Leilighet,Eier (Selveier),1,31.0,31.0,7,2007,,384.0,36.0,6531.0,904315.0,3989.0,D - mørkegrønn,,,,,,,,,,,,,,,,,4104959.0,31.0,132418.03225806452,2948257.5701091425,0.3309814133882547
207,165946819,"Lys, gjennomgående 2-roms med stor solrik balkong | Nytt bad i regi av borettslaget i 2020 | ""Alt"" inkl. i felleskostn.","Radarveien 45, 1152 Oslo",3100000.0,59.8775,10.806,https://www.finn.no/realestate/homes/ad.html?finnkode=165946819,8219.0,3198219.0,3923.0,Leilighet,Andel,1,53.0,53.0,,1957,2,40765.0,58.0,15256.0,840768.0,90000.0,,,2019,926 01 461,,,,,23 03 01 88,,,,,,,,,3198219.0,53.0,60343.75471698113,4103833.2239487935,-0.2493273772360851
208,166239885,Meget sjarmerende og nyoppusset 2-roms selveier beliggende i 3 etasje. Attraktiv beliggenhet i Det Rivertzke kvartal!,"Uelands gate 65, 0462 Oslo",3800000.0,59.936295,10.750344,https://www.finn.no/realestate/homes/ad.html?finnkode=166239885,107770.0,3973109.0,2471.0,Leilighet,Eier (Selveier),1,47.0,47.0,3,1911,2,29591.0,52.0,15076.0,918673.0,65339.0,G - oransje,,,,Ja,,,,,,,,,,,,,3973109.0,47.0,84534.23404255319,3788676.2274470706,0.047532233918870403
209,166239888,"Lyst og velholdt enderekkehus I Vestvendt terrasse og hage I Garasje I Svært barnevennlig, attraktivt og sentralt område","Stordamveien 47 F, 0671 Oslo",6500000.0,59.912056,10.85529,https://www.finn.no/realestate/homes/ad.html?finnkode=166239888,176200.0,6676200.0,750.0,Rekkehus,Eier (Selveier),3,115.0,119.0,,1967,,226.0,131.0,,1325442.0,,G - oransje,,,,Ja,9923.0,,,,,,,,,,,,6676200.0,119.0,56102.52100840336,7570560.185467747,-0.1257181020241589
210,166239874,"Bo skjermet og barnevennlig, i en pen, nylig oppgradert 4-roms selveier med Aubo-kjøkken fra 2019 og vestvendt balkong.","Østerliveien 49B, 1153 Oslo",4490000.0,59.87616,10.813695,https://www.finn.no/realestate/homes/ad.html?finnkode=166239874,126120.0,4734090.0,4031.0,Leilighet,Eier (Selveier),3,71.0,71.0,,1955,,3131.0,78.0,,1507956.0,117970.0,G - oransje,,,,,,,,,,,,,,,,,4734090.0,71.0,66677.32394366198,5049304.213453963,-0.06446093196281133
211,166239839,Lys og luftig 2-roms toppleilighet m/vestvendt balkong og flotte solforhold. Nær marka!,"Kurveien 58, 0494 Oslo",3750000.0,59.963062,10.790559,https://www.finn.no/realestate/homes/ad.html?finnkode=166239839,15119.0,3974119.0,3692.0,Leilighet,Andel,1,54.0,54.0,3,1954,,69070.0,59.0,24766.0,1072037.0,209000.0,,,,,Ja,,,,,,,,,,,,,3974119.0,54.0,73594.79629629629,4156359.3900324143,-0.044836456160519234
212,161594607,Ny moderne 3-roms leilighet i 7. etasje - Garasje inkl. - Sentral beliggenhet og usjenert balkong med flott fjordutsikt!,"Haugerudsenteret 5, 0673 Oslo",4850000.0,59.92243,10.856341,https://www.finn.no/realestate/homes/ad.html?finnkode=161594607,135600.0,4985600.0,3348.0,Leilighet,Eier (Selveier),2,81.0,85.0,7,2003,3,5605.0,93.0,,983081.0,,F - rød,,,,Ja,,,,,,,,,,,,,4985600.0,85.0,58654.117647058825,5784670.53862465,-0.14865765079723126
213,166048098,4-roms rekkehusleilighet over 2 plan på bakkeplan|Nytt bad fra 2016| Spiseplass på kjøkken|Garasjeplass*| Perfekt famili,"Beverveien 4, 0596 Oslo",3100000.0,59.9435,10.8459,https://www.finn.no/realestate/homes/ad.html?finnkode=166048098,5032.0,3648747.0,5154.0,Leilighet,Andel,3,82.0,92.0,1,1958,4,19371.0,,,1159389.0,543715.0,G - rød,,,417 58 300,,,,,,,,,,,,,,3648747.0,92.0,39660.29347826087,6152353.701209994,-0.5224509032589104
214,165899678,"Ny villaleilighet med høy standard, heis, 2 garasjepl. Markterrasse med gode solforhold. Stort kjellerrom, 2 bad, 3 sov.","Mylskerudveien 36, 1152 Oslo",11900000.0,59.8756,10.806,https://www.finn.no/realestate/homes/ad.html?finnkode=165899678,13722.0,11913722.0,5477.0,Leilighet,Eier (Selveier),3,121.0,123.0,1,2019,4,1920.0,,,,,B - lysegrønn,,,922 44 022,,,,,22 69 10 13,,,,,,,,,11913722.0,123.0,96859.52845528456,7780664.84980223,0.42604905422945727
215,166239449,Nyoppusset og moderne rekkehus - Unik fjordutsikt - 4 sov - Solrikt uteområde - Garasjeplass med elbillader,"Løkkaskogen 18 b, 0773 Oslo",9700000.0,59.956078,10.679567,https://www.finn.no/realestate/homes/ad.html?finnkode=166239449,257372.0,9957372.0,,Rekkehus,Eier (Selveier),4,126.0,128.0,,1979,,175.0,142.0,,2077784.0,,D - rød,,,,Ja,,,,,,,,,,,,,9957372.0,128.0,77791.96875,8043295.680220332,0.21347427168315924
216,166239200,"Lys 3-roms i blindvei, med god planløsning og solrik, innglasset balkong. Fyring, varmtvann, tv og internett inkludert!","Karl Staaffs vei 68, 0665 Oslo",3470000.0,59.918457,10.811512,https://www.finn.no/realestate/homes/ad.html?finnkode=166239200,7960.0,3499960.0,3579.0,Leilighet,Andel,2,63.0,70.0,1,1958,3,6461.0,78.0,,833140.0,22000.0,G - mørkegrønn,,,,Ja,,,,,,,,,,,,,3499960.0,70.0,49999.42857142857,4996778.047370343,-0.35604177434072604
217,166238861,"Ellingsrud Vest - Rekkehus over 2 plan med 3 soverom, nytt kjøkken 2016, og 3 solrike uteplasser.","Erling Michelsens vei 18C, 1061 Oslo",4450000.0,59.935524,10.9064665,https://www.finn.no/realestate/homes/ad.html?finnkode=166238861,15285.0,4479285.0,3248.0,Rekkehus,Andel,3,96.0,103.0,,1982,4,52023.0,112.0,,1158642.0,14000.0,F - oransje,,,,Ja,,,,,,,,,,,,,4479285.0,103.0,43488.203883495145,6730141.528129819,-0.40713273739985745
218,166238768,"Bo med flott utsikt utover Østmarka og Oslo by, i en oppgradert og meget attraktiv 3-roms med solrik, sydvendt balkong!","Vetlandsveien 66, 0683 Oslo",3800000.0,59.90183,10.848029,https://www.finn.no/realestate/homes/ad.html?finnkode=166238768,15285.0,3962285.0,3910.0,Leilighet,Andel,2,72.0,72.0,11,1960,3,60712.0,79.0,,945294.0,147000.0,G - mørkegrønn,,,,Ja,,,,,,,,,,,,,3962285.0,72.0,55031.73611111111,5101830.379537583,-0.25277849423409826
219,159990192,"Strøken, klassisk og gjennomgående 2(3)-R selveier | Overflateoppusset 2018 og 2019 | Nye vinduer 2019 | Lave FK","Markveien 4B, 0554 Oslo",4090000.0,59.927,10.7573,https://www.finn.no/realestate/homes/ad.html?finnkode=159990192,111722.0,4205572.0,1710.0,Leilighet,Eier (Selveier),1,48.0,48.0,2,1895,2,488.0,54.0,2982.0,898268.0,3850.0,F - oransje,,,,,,,,,,,,,,,,,4205572.0,48.0,87616.08333333333,3841202.393530691,0.09062487180927725
